City,Lat,Lng,Max Temp,Humidity,Cloudiness,Wind Speed,Country,Date
Hermanus,-34.42,-34.42,291.48,78,3,0.45,ZA,1607925139
Yaan,7.38,7.38,297.47,84,13,2.37,NG,1607925139
Bredasdorp,-34.53,-34.53,289.15,77,2,3.1,ZA,1607925139
Poum,-20.23,-20.23,300.54,80,99,10.69,NC,1607925139
Nikolskoye,59.7,59.7,269.82,85,90,1,RU,1607925139
Adrar,20.5,20.5,288.15,34,94,2.21,MR,1607925139
Atuona,-9.8,-9.8,299.2,78,2,5.96,PF,1607925140
Jutaí,-5.18,-5.18,295.7,96,61,0.76,BR,1607925140
Cologne,50.93,50.93,280.37,75,75,5.7,DE,1607925136
Jamestown,42.1,42.1,273.71,86,90,1.86,US,1607925140
Rawson,-43.3,-43.3,290.95,31,75,8.99,AR,1607925027
Imbituba,-28.24,-28.24,296.15,88,75,1.5,BR,1607925140
Drăgeşti,46.88,46.88,277.15,100,75,1,RO,1607925140
 , , , , , , , , 
Albany,42.6,42.6,276.48,66,72,1.47,US,1607925039
 , , , , , , , , 
Marzuq,14.4,14.4,289.59,32,23,2.75,YE,1607925141
Rikitea,-23.12,-23.12,297.24,74,28,2.72,PF,1607925025
Ushuaia,-54.8,-54.8,278.15,86,75,13.4,AR,1607925093
Husavik,66.04,66.04,276.15,74,20,4.1,IS,1607925141
Iquitos,-3.75,-3.75,296.15,94,90,1.5,PE,1607925142
Busselton,-33.65,-33.65,293.15,55,26,0.45,AU,1607925142
Nadym,65.53,65.53,261.62,96,100,2.35,RU,1607925142
Vaini,-21.2,-21.2,299.15,88,75,6.7,TO,1607925142
Kapaa,22.08,22.08,297.15,73,1,1.5,US,1607925142
Mataura,-46.19,-46.19,287.59,78,94,4.92,NZ,1607925142
East London,-33.02,-33.02,295.15,83,0,3.1,ZA,1607925142
Qaanaaq,77.48,77.48,268.17,91,100,1.17,GL,1607925143
Yellowknife,62.46,62.46,237.15,73,5,3.1,CA,1607925143
Tallahassee,30.44,30.44,289.82,100,75,3.57,US,1607924984
Saskylakh,71.92,71.92,241.64,83,100,6.96,RU,1607925143
Dikson,73.51,73.51,248.86,91,100,4.95,RU,1607925143
 , , , , , , , , 
Wanlaweyn,2.62,2.62,300.49,58,0,7.65,SO,1607925143
Rio Grande,-32.03,-32.03,292.04,81,93,1.34,BR,1607925143
Hong Kong,22.29,22.29,292.59,75,93,4.02,HK,1607925144
Huaidian,33.43,33.43,275.48,53,100,2.69,CN,1607925144
La Santisima Trinidad,-14.83,-14.83,298.18,76,100,1.35,BO,1607925144
Bilibino,68.05,68.05,256.31,88,100,1.35,RU,1607925144
Oranjemund,-28.55,-28.55,289.93,73,2,4.92,NA,1607925144
Coquimbo,-29.95,-29.95,286.15,93,0,0.24,CL,1607925145
Puerto Ayora,-0.74,-0.74,295.93,90,98,4.02,EC,1607925145
Verkhnevilyuysk,63.45,63.45,244.57,86,100,2.63,RU,1607925145
Lagoa,39.05,39.05,286.88,65,28,13.03,PT,1607925145
Walldürn,49.58,49.58,274.82,99,84,1.74,DE,1607925145
Khatanga,71.97,71.97,246.47,88,100,4.34,RU,1607925145
Kununurra,-15.77,-15.77,309.15,47,92,3.1,AU,1607925145
Provideniya,64.38,64.38,263.8,94,100,11.8,RU,1607925145
Faya,18.39,18.39,285.15,57,0,0.81,SA,1607925146
Sterling,39.01,39.01,279.15,70,20,2.1,US,1607925077
Nanortalik,60.14,60.14,273.21,94,100,2.71,GL,1607925146
Shādegān,30.65,30.65,285.15,87,0,1.24,IR,1607925146
Cockburn Town,21.46,21.46,299.46,79,49,8.97,TC,1607925146
Sørland,67.67,67.67,276.15,86,75,1.5,NO,1607925146
San Policarpo,12.18,12.18,301.53,81,100,6,PH,1607925147
Nuuk,64.18,64.18,266.15,67,100,5.7,GL,1607924866
 , , , , , , , , 
Carnarvon,-24.87,-24.87,299.15,47,0,10.8,AU,1607925147
Avarua,-21.21,-21.21,300.15,78,35,2.6,CK,1607925147
Ilulissat,69.22,69.22,267.15,73,100,7.7,GL,1607925147
 , , , , , , , , 
Saint Paul Harbor,57.79,57.79,279.15,93,90,8.2,US,1607925148
Ulan-Ude,51.83,51.83,254.15,77,41,1.64,RU,1607925148
Antofagasta,-23.65,-23.65,290.15,77,75,1.5,CL,1607925148
Port Alfred,-33.59,-33.59,295.37,87,1,2.68,ZA,1607925148
Port Elizabeth,-33.92,-33.92,293.15,88,40,8.7,ZA,1607925148
Bluff,-46.6,-46.6,287.59,78,79,4.92,NZ,1607925148
Punta Arenas,-53.15,-53.15,279.15,75,66,11.3,CL,1607925140
Chui,-33.7,-33.7,286.65,90,45,3.03,UY,1607925149
Ocós,14.51,14.51,290.93,91,95,3.12,GT,1607925149
Kologriv,58.83,58.83,263.87,95,100,3.37,RU,1607925149
Severo-Kuril'sk,50.68,50.68,274.72,91,97,15.77,RU,1607925149
Pizhanka,57.46,57.46,259.09,94,83,3.81,RU,1607925149
Forbes,-33.38,-33.38,299,42,60,6.24,AU,1607925031
Shebunino,46.43,46.43,265.07,92,98,7.83,RU,1607925150
Qui Nhon,13.77,13.77,299.27,87,65,3.71,VN,1607925071
Salalah,17.02,17.02,296.15,31,0,5.7,OM,1607925146
São Filipe,14.9,14.9,296.42,73,20,4.04,CV,1607925150
Golden,39.76,39.76,266.15,79,1,3.1,US,1607925001
 , , , , , , , , 
Mar del Plata,-38,-38,286.48,63,0,5.36,AR,1607925150
Ust-Tsilma,65.44,65.44,266.84,97,100,3.25,RU,1607925150
Bartica,6.4,6.4,296.15,100,20,1,GY,1607925151
Labuan,5.28,5.28,303.15,74,20,3.1,MY,1607924943
Anchorage,61.22,61.22,271.15,73,90,2.1,US,1607925112
Hilo,19.73,19.73,296.15,88,90,2.1,US,1607925151
Tasiilaq,65.61,65.61,273.02,93,100,8.19,GL,1607925151
Esperance,-33.87,-33.87,292.15,48,90,7.2,AU,1607925152
Baghdad,33.34,33.34,284.15,66,4,2.1,IQ,1607924919
Jining,35.41,35.41,273.72,52,13,1.14,CN,1607925152
Sarangani,5.4,5.4,300.68,79,100,7.53,PH,1607925152
Launceston,-41.45,-41.45,300.37,44,1,7.7,AU,1607925152
 , , , , , , , , 
Alofi,-19.06,-19.06,297.15,94,90,6.2,NU,1607925152
Tsiroanomandidy,-18.77,-18.77,296.72,66,97,1.93,MG,1607925153
Timizart,36.8,36.8,283.59,57,75,2.91,DZ,1607925153
Codrington,-38.27,-38.27,304.76,35,73,3.44,AU,1607925153
Karabulak,43.3,43.3,269.15,92,90,1,RU,1607925153
Lebu,-37.62,-37.62,283.39,86,7,4.29,CL,1607925153
 , , , , , , , , 
Santa Cruz de la Sierra,-17.8,-17.8,297.15,94,90,2.6,BO,1607925153
Am Timan,11.03,11.03,296.4,21,89,1.37,TD,1607925154
Hasaki,35.73,35.73,283.15,57,75,3.6,JP,1607925154
Airai,-8.93,-8.93,294.08,100,100,0.76,TL,1607925154
Lavrentiya,65.58,65.58,262.49,84,100,16.28,RU,1607925154
Katsuura,35.13,35.13,287.04,35,74,2.68,JP,1607925154
Saldanha,-33.01,-33.01,287.15,82,38,0.5,ZA,1607925154
Poya,-21.35,-21.35,301.31,70,100,3.69,NC,1607925154
 , , , , , , , , 
Chernyshevsk,52.52,52.52,249.43,79,0,0.63,RU,1607925155
Iqaluit,63.75,63.75,265.15,67,90,7.2,CA,1607925155
Ponta do Sol,32.67,32.67,288.15,87,40,2.1,PT,1607925155
Charcas,23.13,23.13,286.08,44,74,4.16,MX,1607925155
Cabedelo,-6.98,-6.98,297.15,94,20,2.1,BR,1607924995
Shuyskoye,59.37,59.37,266.11,97,100,3.05,RU,1607925155
Ust-Maya,60.42,60.42,228.67,76,100,0.13,RU,1607925156
Grand Gaube,-20.01,-20.01,300.93,72,17,4.02,MU,1607925156
Hamilton,39.18,39.18,278.15,86,90,1.5,US,1607924914
Hlobyne,49.39,49.39,273.9,93,100,4.78,UA,1607925156
Mana,5.66,5.66,297.95,87,32,2.86,GF,1607925156
Akdepe,42.06,42.06,260.15,78,0,1,TM,1607925156
College,64.86,64.86,262.15,56,90,7.7,US,1607925156
Turinsk,58.05,58.05,264.43,92,57,5.01,RU,1607925157
Norman Wells,65.28,65.28,231.15,64,40,2.24,CA,1607925157
Sabha,27.04,27.04,280.97,63,0,2.72,LY,1607925157
Laguna,38.42,38.42,282.15,87,1,2.6,US,1607925157
Erzin,36.96,36.96,287.59,72,100,3.58,TR,1607925157
Cairns,-16.92,-16.92,303.15,62,100,4.6,AU,1607925071
Black River,18.03,18.03,299.15,78,20,2.6,JM,1607925157
Dunmore Town,25.5,25.5,298.19,79,35,3.08,BS,1607925158
Coahuayana Viejo,18.73,18.73,295.61,87,37,1.14,MX,1607925158
Itarema,-2.92,-2.92,299.79,75,10,6.03,BR,1607925158
New Norfolk,-42.78,-42.78,305.15,24,0,3.1,AU,1607925158
Villa Luvianos,18.92,18.92,288.9,57,0,1.77,MX,1607925158
Cape Town,-33.93,-33.93,292.59,72,0,3.6,ZA,1607924947
Port Hedland,-20.32,-20.32,305.15,52,41,6.7,AU,1607925158
Tuatapere,-46.13,-46.13,287.59,78,81,4.92,NZ,1607925158
Extrema,-22.85,-22.85,293.15,88,75,4.6,BR,1607925080
San Patricio,28.02,28.02,285.15,46,75,10.3,US,1607925159
Balabac,7.99,7.99,303.2,69,91,3.99,PH,1607925159
Cabo San Lucas,22.89,22.89,291.48,76,0,2.68,MX,1607925159
Osečina,44.37,44.37,277.04,84,90,5.7,RS,1607925159
Kargil,34.57,34.57,262.01,55,24,0.52,IN,1607925159
Taclobo,12.31,12.31,301.7,70,56,3.38,PH,1607925159
Dombarovskiy,50.76,50.76,263.14,91,0,1.67,RU,1607925160
Gunjur,13.2,13.2,291.15,82,0,5.78,GM,1607925160
Yumen,40.28,40.28,265.84,90,96,3.69,CN,1607925160
Saint-Joseph,-21.37,-21.37,299.15,78,75,9.8,RE,1607925160
Maceió,-9.67,-9.67,295.15,100,20,1,BR,1607924992
Aksu,41.12,41.12,270.68,85,67,0.84,CN,1607925160
Hobart,-42.88,-42.88,305.15,24,0,3.1,AU,1607924456
Dudinka,69.41,69.41,244.15,75,0,4,RU,1607925161
Virden,39.5,39.5,272.59,85,87,5.36,US,1607925161
Gijang,35.24,35.24,274.15,11,0,7.2,KR,1607925161
Murgab,37.5,37.5,269.15,85,75,3.1,TM,1607925161
Vao,-22.67,-22.67,298.44,81,100,10,NC,1607925161
Ingham,42.6,42.6,274.26,80,90,3.14,US,1607925161
Yar-Sale,66.83,66.83,257.67,94,100,5.9,RU,1607925161
Mednogorskiy,43.92,43.92,280.31,58,100,2.01,RU,1607925162
Shangzhi,45.22,45.22,254.72,85,10,5.74,CN,1607925162
Eureka,40.8,40.8,280.93,95,28,1.69,US,1607924972
Cidreira,-30.18,-30.18,294.32,92,97,3.32,BR,1607925162
Vila do Maio,15.13,15.13,294.15,83,0,4.1,CV,1607925162
São Miguel do Araguaia,-13.28,-13.28,296.28,90,96,1.37,BR,1607925162
Okhotsk,59.38,59.38,252.61,81,13,9.5,RU,1607925162
Lianhe,47.13,47.13,255.25,73,18,4.6,CN,1607925162
 , , , , , , , , 
 , , , , , , , , 
 , , , , , , , , 
Esso,55.93,55.93,262.91,89,100,1.52,RU,1607925163
Doha,25.29,25.29,292.15,63,0,3.6,QA,1607924974
Valdez,1.25,1.25,297.75,91,100,4.7,EC,1607925163
 , , , , , , , , 
Kangaba,11.93,11.93,292.34,28,47,1.5,ML,1607925164
Touros,-5.2,-5.2,297.15,88,40,2.1,BR,1607925164
Pangnirtung,66.15,66.15,254.04,73,22,3.16,CA,1607925164
Marsh Harbour,26.54,26.54,297,78,44,2.36,BS,1607925164
Zhigansk,66.77,66.77,231.87,79,63,6.21,RU,1607925164
Beckley,37.78,37.78,276.48,93,90,2.1,US,1607925062
Caravelas,-17.71,-17.71,295.12,92,2,1.39,BR,1607925164
Newport,51.59,51.59,282.59,95,98,0.89,GB,1607925164
Soe,-9.86,-9.86,297.76,90,98,2.41,ID,1607925165
Mwene-Ditu,-7,-7,291.88,100,100,1.37,CD,1607925165
Aranos,-24.13,-24.13,299.74,21,0,2.64,NA,1607925165
Mari-Turek,56.79,56.79,259.93,94,80,4.05,RU,1607925165
Barhi,23.9,23.9,295.86,50,73,3.36,IN,1607925165
Mahon,39.89,39.89,285.15,93,20,2.6,ES,1607925165
Kapoeta,4.77,4.77,302.12,33,39,10.59,SS,1607925165
 , , , , , , , , 
Hualmay,-11.1,-11.1,292.34,86,93,2.89,PE,1607925166
Jhābua,22.77,22.77,298.18,51,85,2.81,IN,1607925166
Fortuna,40.6,40.6,281.48,95,31,0.91,US,1607925166
Hobyo,5.35,5.35,300.1,60,1,9.21,SO,1607925166
Bathsheba,13.22,13.22,299.15,88,40,5.7,BB,1607925166
Barrow,71.29,71.29,253.15,70,1,11.3,US,1607925166
Esik,43.36,43.36,263.15,92,90,3,KZ,1607925167
Sokoni,-6.43,-6.43,301.15,78,20,4.1,TZ,1607925167
Eugene,44.05,44.05,279.26,87,40,3.1,US,1607924955
Kahului,20.89,20.89,297.15,83,1,2.6,US,1607925167
Lata,40.16,40.16,287.59,94,100,0.45,PT,1607925167
Castro,-24.79,-24.79,290.98,91,23,2.11,BR,1607924924
Camacha,33.08,33.08,290.15,93,75,5.7,PT,1607925168
Krasnosel'kup,65.7,65.7,257.32,94,100,2.94,RU,1607925168
Taltal,-25.4,-25.4,288.49,74,3,0.84,CL,1607925168
 , , , , , , , , 
Carauari,-4.88,-4.88,295.64,94,52,0.79,BR,1607925168
St. George's,12.06,12.06,298.15,88,20,4.48,GD,1607925168
Mackenzie,55.3,55.3,262.15,72,90,1,CA,1607925169
Ceccano,41.57,41.57,280.37,81,0,1.79,IT,1607925169
Luwuk,-0.95,-0.95,303.67,66,42,0.88,ID,1607925169
Tynda,55.17,55.17,242.4,82,83,1.75,RU,1607925169
Carballo,43.21,43.21,284.82,87,0,2.1,ES,1607925169
Avera,33.19,33.19,290.15,86,75,3.1,US,1607925169
 , , , , , , , , 
Inhambane,-23.86,-23.86,301.15,78,40,2.6,MZ,1607925170
Puerto Santander,8.36,8.36,295.22,79,83,1.16,CO,1607925170
Leningradskiy,69.38,69.38,264.52,89,100,9.38,RU,1607925170
 , , , , , , , , 
Elko,41,41,269.26,94,98,1.34,US,1607925044
Santa Fe,-31.63,-31.63,288.71,85,0,0.89,AR,1607925170
Sukumo,32.93,32.93,280.81,58,21,8.21,JP,1607925170
Kaduy,59.2,59.2,269.15,92,90,3,RU,1607925171
Ziyang,29.25,29.25,279.38,65,90,3.54,CN,1607925171
Ahipara,-35.17,-35.17,291.54,72,18,1.53,NZ,1607925171
Thompson,55.74,55.74,243.15,82,5,2.1,CA,1607925171
 , , , , , , , , 
Ancud,-41.87,-41.87,285.93,93,75,4.6,CL,1607925171
Derzhavīnsk,51.1,51.1,259.7,93,82,2.68,KZ,1607925171
Bubaque,11.28,11.28,299.86,59,3,3.92,GW,1607925171
Hithadhoo,-0.6,-0.6,301.39,75,99,7.27,MV,1607925172
Shisui,35.72,35.72,283.15,47,75,3.6,JP,1607925172
Leh,34.17,34.17,262.36,57,0,0.93,IN,1607925172
Krasnokholmskiy,55.99,55.99,257.85,94,71,2.28,RU,1607925172
Tautira,-17.73,-17.73,300.93,69,20,1.5,PF,1607925172
Khovd,48.01,48.01,258.05,77,0,1.45,MN,1607925172
Kaitangata,-46.28,-46.28,289.82,70,97,4.02,NZ,1607925172
Tuktoyaktuk,69.45,69.45,250.15,83,40,4.1,CA,1607925173
Fatsa,41.03,41.03,284.15,66,40,0.5,TR,1607925173
Kruisfontein,-34,-34,295.37,78,27,1.79,ZA,1607925173
 , , , , , , , , 
Deputatsky,69.3,69.3,244.08,88,100,1.63,RU,1607925173
Arlit,18.74,18.74,292.91,23,0,2.57,NE,1607925173
Luanda,-8.84,-8.84,297.15,78,40,1.5,AO,1607924947
Chapais,49.78,49.78,259.15,92,90,3.6,CA,1607925117
Uglovskoye,51.36,51.36,263.26,96,99,5.2,RU,1607925174
Saint-Philippe,-21.36,-21.36,299.15,78,75,9.8,RE,1607925174
Bambous Virieux,-20.34,-20.34,300.93,88,40,3.6,MU,1607925174
Dundee,56.5,56.5,282.15,87,75,6.7,GB,1607925174
Port Hardy,50.7,50.7,279.15,93,90,3.6,CA,1607925000
Cherskiy,68.75,68.75,245.43,87,100,2.47,RU,1607925174
Torbay,47.67,47.67,272.59,100,90,8.7,CA,1607925174
Oxbow,49.23,49.23,249.15,76,1,3.1,CA,1607925175
Taunggyi,20.78,20.78,297.35,34,2,0.87,MM,1607925175
Sakakah,29.97,29.97,285.15,37,0,3.4,SA,1607925175
Butaritari,3.07,3.07,301.03,77,6,8.14,KI,1607925175
Platonovka,52.71,52.71,263.76,94,100,5.04,RU,1607925175
Abu Samrah,35.3,35.3,285.26,66,59,4.63,SY,1607925175
Namatanai,-3.67,-3.67,301.82,76,99,3.09,PG,1607925175
Timrå,62.49,62.49,274.15,93,95,4.6,SE,1607925175
Kavaratti,10.57,10.57,303.15,74,20,1,IN,1607925176
Tomatlán,19.93,19.93,291.72,91,80,0.81,MX,1607925176
 , , , , , , , , 
Karratha,-20.74,-20.74,303.24,51,22,6.91,AU,1607925176
Klaksvík,62.23,62.23,280.15,100,100,15.4,FO,1607925176
Santa Maria,-29.68,-29.68,293.24,93,100,1.86,BR,1607925176
Upernavik,72.79,72.79,267.78,98,100,4.83,GL,1607925176
Chokurdakh,70.63,70.63,245.6,89,100,2.96,RU,1607925177
 , , , , , , , , 
 , , , , , , , , 
Horizontina,-27.63,-27.63,292.04,93,98,0.45,BR,1607925177
Tanabe,33.73,33.73,282.15,57,75,9.8,JP,1607925177
Mahébourg,-20.41,-20.41,299.15,88,40,3.6,MU,1607925177
Vostok,46.49,46.49,251.23,89,100,2.86,RU,1607925177
Fare,-16.7,-16.7,300.51,68,0,4.46,PF,1607925177
Longyearbyen,78.22,78.22,267.15,79,75,5.7,SJ,1607925178
Spring Hill,28.48,28.48,289.82,93,1,1.5,US,1607925178
Boddam,57.47,57.47,282.04,93,40,8.7,GB,1607925178
Killybegs,54.63,54.63,280.37,93,96,4.02,IE,1607925178
Kargasok,59.06,59.06,261.95,96,100,4.91,RU,1607925178
Manacapuru,-3.3,-3.3,299.15,88,40,1.5,BR,1607924958
Luís Correia,-2.88,-2.88,299.65,79,94,5.59,BR,1607925179
Pevek,69.7,69.7,263.65,88,100,9.9,RU,1607925179
 , , , , , , , , 
Pilar,-9.6,-9.6,295.15,100,20,1,BR,1607924917
Seabra,-12.42,-12.42,288.21,93,26,1.01,BR,1607925179
Beringovskiy,63.05,63.05,268.81,98,100,9.02,RU,1607925179
Sarakhs,36.54,36.54,268.15,85,0,3.56,IR,1607925179
Pasichna,48.57,48.57,274.15,100,90,2,UA,1607925179
Kirkuk,35.47,35.47,288.53,47,85,2.52,IQ,1607925180
Chabahar,25.29,25.29,294.07,33,0,6.33,IR,1607925180
Dunedin,-45.87,-45.87,288.71,69,91,3.13,NZ,1607925180
Oktyabr'skoye,43.06,43.06,269.15,92,90,1,RU,1607925180
Yulara,-25.24,-25.24,309.15,28,40,7.7,AU,1607925180
Barranca,-10.75,-10.75,292.3,87,99,3.16,PE,1607925180
Petrovac,44.38,44.38,276.48,92,99,0.45,RS,1607925180
Meulaboh,4.14,4.14,302.17,69,94,2.18,ID,1607925181
Baykit,61.67,61.67,250.4,86,87,0.63,RU,1607925181
Nabire,-3.37,-3.37,301.7,78,99,2.54,ID,1607925181
Constitución,-35.33,-35.33,286.54,58,0,4.56,CL,1607925181
Ulaanbaatar,47.91,47.91,248.15,62,0,1,MN,1607925181
Hamada,34.88,34.88,278.15,60,75,9.3,JP,1607925181
Oodweyne,9.41,9.41,294.07,33,37,8.62,SO,1607925181
Port Lincoln,-34.73,-34.73,299.88,54,10,3.27,AU,1607925182
Comodoro Rivadavia,-45.87,-45.87,287.15,54,0,6.7,AR,1607925182
 , , , , , , , , 
Sirte,31.21,31.21,289.03,72,31,11.23,LY,1607925182
Teya,60.38,60.38,253.92,89,98,1.69,RU,1607925182
Yining,29.04,29.04,277.11,75,96,3.38,CN,1607925182
Margate,51.38,51.38,285.37,90,100,3.58,GB,1607925183
Asău,46.43,46.43,273.71,100,53,1.22,RO,1607925183
Kohat,33.58,33.58,285.15,66,20,2.1,PK,1607925183
 , , , , , , , , 
Aasiaat,68.71,68.71,265.05,94,100,6.07,GL,1607925183
Pringsewu,-5.36,-5.36,301.43,80,89,1.15,ID,1607925183
Inuvik,68.35,68.35,245.15,75,100,1,CA,1607925177
Biak,-0.91,-0.91,303.09,66,82,1.06,ID,1607925184
Kadiri,14.12,14.12,297.44,55,3,3.14,IN,1607925184
Kiryat Gat,31.61,31.61,300.15,18,75,6.7,IL,1607925184
Grindavik,63.84,63.84,276.15,66,0,5.1,IS,1607925184
Vardø,70.37,70.37,270.15,86,90,3.6,NO,1607925184
Grand-Lahou,5.14,5.14,298.45,86,23,2.64,CI,1607925184
Catherinas Lust,6.4,6.4,298.81,85,22,3.92,GY,1607925184
Kalmunai,7.42,7.42,300.29,65,92,4.5,LK,1607925185
Keetmanshoop,-26.58,-26.58,294.15,23,0,1,NA,1607925185
Manavālakurichi,8.13,8.13,304.15,62,20,3.08,IN,1607925185
Faanui,-16.48,-16.48,300.18,71,0,4.51,PF,1607925185
Yangi Marg`ilon,40.43,40.43,272.15,92,90,1,UZ,1607925185
Sestri Levante,44.27,44.27,281.48,76,3,2.38,IT,1607925185
Port Hawkesbury,45.62,45.62,278.15,100,90,1.5,CA,1607925185
Outlook,51.5,51.5,250.15,67,0,2.6,CA,1607925186
Kichera,55.94,55.94,249.47,76,28,1.07,RU,1607925186
Matara,5.95,5.95,302.1,62,31,1.49,LK,1607925186
Quatre Cocos,-20.21,-20.21,300.93,88,40,3.6,MU,1607925186
Nouadhibou,20.93,20.93,289.15,77,55,5.7,MR,1607925185
Waddān,29.16,29.16,282.77,61,0,4.5,LY,1607925186
Gaillac,43.9,43.9,282.04,77,98,1.79,FR,1607925186
Bethel,41.37,41.37,275.37,80,1,1.36,US,1607925186
San Quintín,30.48,30.48,288.18,61,6,2.93,MX,1607925187
Crotone,39.09,39.09,280.37,72,10,4.92,IT,1607925187
Iporá,-16.44,-16.44,294.19,82,51,1.04,BR,1607925187
Kiunga,-6.12,-6.12,305.69,58,99,1.96,PG,1607925187
Magistral'nyy,56.17,56.17,249.34,87,83,2.6,RU,1607925187
Rome,43.21,43.21,274.82,86,90,1.5,US,1607925188
Verkhoyansk,67.54,67.54,231.73,72,20,0.23,RU,1607925188
 , , , , , , , , 
Ziniaré,12.58,12.58,294.15,46,4,1,BF,1607925188
Carutapera,-1.2,-1.2,297.36,92,8,1.56,BR,1607925188
Road Town,18.42,18.42,298.71,88,0,4.47,VG,1607925061
Koungou,-12.73,-12.73,303.15,74,20,1,YT,1607925188
Kamaishi,39.27,39.27,272.15,74,75,2.6,JP,1607925188
Alta Floresta,-9.88,-9.88,294.46,95,100,0.37,BR,1607925189
Ossora,59.24,59.24,256.67,88,57,3.4,RU,1607925189
Sawankhalok,17.32,17.32,305.93,62,0,1,TH,1607925189
 , , , , , , , , 
Gaogou,34.02,34.02,274.46,67,75,4.69,CN,1607925189
Shenjiamen,29.96,29.96,280.58,71,99,10.27,CN,1607925189
Umba,66.69,66.69,267.37,96,100,2.01,RU,1607925189
Juruti,-2.15,-2.15,298.23,76,60,0.86,BR,1607925190
Te Anau,-45.42,-45.42,293.92,48,99,0.93,NZ,1607925190
Ishigaki,24.34,24.34,292.15,100,75,6.2,JP,1607925190
Haines Junction,60.75,60.75,253.15,83,100,0.5,CA,1607925190
Flin Flon,54.77,54.77,249.8,88,21,2.67,CA,1607925003
Lewiston,44.1,44.1,273.71,100,1,1.88,US,1607925178
Souillac,-20.52,-20.52,299.15,88,40,3.6,MU,1607925191
Huarmey,-10.07,-10.07,292.62,86,91,4.13,PE,1607925191
Nelson Bay,-32.72,-32.72,297.15,60,75,5.7,AU,1607925191
Sampit,-2.53,-2.53,306.26,49,100,1.62,ID,1607925191
Salta,-24.79,-24.79,287.15,87,90,4.1,AR,1607925191
Arkhangelsk,64.54,64.54,265.15,92,90,1,RU,1607925191
Warmbad,-28.45,-28.45,293.48,30,0,2.26,NA,1607925191
Tilichiki,60.47,60.47,256.11,95,89,4.36,RU,1607925192
Walvis Bay,-22.96,-22.96,289.26,92,98,0.89,NA,1607925192
Maragogi,-9.01,-9.01,297.93,80,71,4.3,BR,1607925192
High Level,58.52,58.52,250.15,83,90,1,CA,1607925192
Jardim,-21.48,-21.48,294.77,91,1,1.74,BR,1607925085
Ivdel',60.69,60.69,267.52,87,59,4.27,RU,1607925192
Zdzieszowice,50.42,50.42,275.37,97,36,2.24,PL,1607925192
Joshīmath,30.57,30.57,283.66,27,22,2.73,IN,1607925193
Labuhan,-6.88,-6.88,299.93,80,100,2.37,ID,1607925193
 , , , , , , , , 
San Andrés,12.58,12.58,301.15,74,20,4.6,CO,1607925193
 , , , , , , , , 
 , , , , , , , , 
Ayan,56.45,56.45,248.7,91,100,10.93,RU,1607925193
Khandyga,62.67,62.67,225.37,72,58,0.85,RU,1607925193
Fes,34.04,34.04,287.15,93,75,4.6,MA,1607925194
Porto Belo,-27.16,-27.16,294.82,95,86,2.19,BR,1607925143
Žilina,49.22,49.22,275.15,80,90,1.5,SK,1607925194
Marang,5.21,5.21,303.15,74,40,2.1,MY,1607925194
Nueva Gerona,21.88,21.88,297.26,83,14,2.97,CU,1607925194
Harper,4.38,4.38,298.4,84,30,2.13,LR,1607925194
 , , , , , , , , 
Kungurtug,50.6,50.6,256.92,83,93,0.46,RU,1607925195
Safi,32.3,32.3,290.3,81,54,5.05,MA,1607925195
Vianden,49.94,49.94,277.59,94,98,3.62,LU,1607925195
 , , , , , , , , 
Turaif,31.67,31.67,284.15,53,0,5.1,SA,1607925195
Kadaya,50.93,50.93,243.6,82,0,0.41,RU,1607925195
 , , , , , , , , 
Kudahuvadhoo,2.67,2.67,301.35,72,16,4.85,MV,1607925196
 , , , , , , , , 
Geraldton,-28.77,-28.77,297.15,44,0,10.8,AU,1607925196
 , , , , , , , , 
Isil'kul',54.91,54.91,260.13,95,79,5.5,RU,1607925196
Kattivākkam,13.22,13.22,302.15,74,40,3.67,IN,1607925196
Skjervøy,70.03,70.03,273.15,92,0,10.3,NO,1607925197
 , , , , , , , , 
Araouane,18.9,18.9,289.51,35,0,3.35,ML,1607925197
Merauke,-8.47,-8.47,303.19,67,67,3.47,ID,1607925197
Madimba,-10.4,-10.4,300.15,83,40,3.6,TZ,1607925197
Pizarro,4.95,4.95,297.44,92,100,2.69,CO,1607925197
Linqiong,30.42,30.42,282.04,75,75,3,CN,1607925197
Severnyy,50.68,50.68,269.15,100,90,5,RU,1607925197
Waitati,-45.75,-45.75,288.71,69,83,3.13,NZ,1607925198
San Jerónimo,-11.95,-11.95,282.16,71,59,0.77,PE,1607925198
Paciran,-6.88,-6.88,300.34,79,100,2.86,ID,1607925198
Dezful,32.38,32.38,289.83,43,0,0.6,IR,1607925198
Kamina,-8.74,-8.74,291.04,98,100,0.87,CD,1607925198
Barcelona,41.39,41.39,283.71,87,20,3.6,ES,1607924462
Hervey Bay,-25.3,-25.3,298.71,75,22,1.34,AU,1607925198
Teruel,40.67,40.67,280.15,93,0,3.6,ES,1607925199
Itoman,26.12,26.12,294.15,64,75,7.7,JP,1607925199
Leticia,-4.22,-4.22,297.15,100,90,0.58,CO,1607925199
Lima,-12.04,-12.04,293.15,82,90,6.7,PE,1607925176
Tiksi,71.69,71.69,239.82,80,28,1.08,RU,1607925199
Riyadh,24.69,24.69,284.15,66,0,1.97,SA,1607925103
Springdale,36.19,36.19,272.15,86,75,3.1,US,1607925200
Vila,42.03,42.03,282.59,96,99,3.13,PT,1607925200
Giohar,2.78,2.78,300.44,61,0,7.62,SO,1607925200
Ribeira Grande,38.52,38.52,287.4,63,29,10.9,PT,1607925200
Lashio,22.93,22.93,298.28,47,6,1.39,MM,1607925200
Mahon,39.89,39.89,285.15,93,20,2.6,ES,1607925079
 , , , , , , , , 
Berlevåg,70.86,70.86,271.15,63,75,4.6,NO,1607925200
Sitka,57.05,57.05,280.15,48,75,8.7,US,1607925201
Shaoguan,24.8,24.8,282.42,76,100,1.88,CN,1607925201
Ketchikan,55.34,55.34,276.15,93,90,8.7,US,1607925201
Mangan,27.52,27.52,293.4,31,0,2.92,IN,1607925201
Kieta,-6.22,-6.22,301.45,77,68,2.81,PG,1607925201
Bengkulu,-3.8,-3.8,301.92,69,91,4.17,ID,1607925201
Isangel,-19.55,-19.55,300.21,80,76,9.24,VU,1607925201
La Asuncion,11.03,11.03,293.15,100,0,4.1,VE,1607925201
Lázaro Cárdenas,17.96,17.96,296.35,87,4,1.97,MX,1607925202
Valga,57.78,57.78,270.37,92,100,2.1,EE,1607925202
Ternate,0.8,0.8,302.53,72,99,4.39,ID,1607925202
 , , , , , , , , 
Havre-St-Pierre,50.23,50.23,264.15,92,90,9.3,CA,1607925202
Kurmanayevka,52.51,52.51,261.89,93,100,2.4,RU,1607925202
Channel-Port aux Basques,47.57,47.57,274.44,91,100,11.79,CA,1607925202
Luyang,27.62,27.62,271.56,97,100,2.42,CN,1607925202
North Branch,45.51,45.51,267.59,88,75,3.13,US,1607924914
Kankaanpää,61.8,61.8,270.93,92,90,1.5,FI,1607925203
The Pas,53.83,53.83,250.15,76,90,3.1,CA,1607925203
Øksfjord,70.24,70.24,272.15,79,40,8.2,NO,1607925203
 , , , , , , , , 
Muros,42.78,42.78,287.04,77,7,5.81,ES,1607925203
Narsaq,60.92,60.92,270.15,86,100,1.5,GL,1607925203
Dolores,-36.31,-36.31,284.06,69,0,2.14,AR,1607924994
Manono,-7.3,-7.3,294.04,96,100,1.2,CD,1607925204
Half Moon Bay,37.46,37.46,284.26,87,1,3.1,US,1607925204
Churapcha,62,62,228.28,77,72,0.99,RU,1607925204
Arraial do Cabo,-22.97,-22.97,296.59,89,100,9.16,BR,1607925204
Sur,22.57,22.57,297.44,36,0,5.47,OM,1607925204
Anloga,5.79,5.79,299.15,94,20,2.1,GH,1607925204
Kiruna,67.86,67.86,265.15,92,100,1.96,SE,1607924972
Sibolga,1.74,1.74,302.69,63,87,2.7,ID,1607925205
Tazmalt,36.39,36.39,283.15,81,0,3.1,DZ,1607925205
Hare Bay,48.85,48.85,269.15,100,100,2.6,CA,1607925205
Soyo,-6.13,-6.13,297.99,81,100,2,AO,1607925205
Hillsborough,37.57,37.57,284.26,81,20,6.2,US,1607925205
Ostrovnoy,68.05,68.05,271.33,97,88,1.76,RU,1607925205
Ulladulla,-35.35,-35.35,296.15,64,75,6.7,AU,1607925205
Nara,34.69,34.69,284.82,50,75,8.7,JP,1607925206
Agadez,19.75,19.75,288.34,36,0,3.9,NE,1607925206
Cayenne,4.93,4.93,297.15,100,20,1.32,GF,1607925206
Lüderitz,-26.65,-26.65,287.15,87,0,6.2,NA,1607925198
Vanimo,-2.67,-2.67,303.13,71,86,3.79,PG,1607925206
George Town,5.41,5.41,304.15,70,20,2.1,MY,1607925206
Padang,-0.95,-0.95,303.12,58,98,2.42,ID,1607925206
Waipawa,-41.41,-41.41,288.15,71,27,4.6,NZ,1607925206
Juradó,7.11,7.11,298,85,98,1.05,CO,1607925207
Jitra,6.27,6.27,303.15,74,20,3.1,MY,1607925207
Tovarkovo,54.68,54.68,269.15,85,90,4,RU,1607925207
Octeville,49.63,49.63,284.26,87,20,6.7,FR,1607925207
Pleasantville,39.39,39.39,279.82,75,1,1.5,US,1607925065
Macao,22.2,22.2,293.15,77,40,8.2,MO,1607925207
Lorengau,-2.02,-2.02,302.03,77,100,3.32,PG,1607925188
Corinth,37.94,37.94,285.37,72,100,1.34,GR,1607925207
Kayerkan,69.35,69.35,244.15,75,0,4,RU,1607925208
Samarai,-10.62,-10.62,301.5,75,99,3.98,PG,1607925208
Solnechnyy,50.72,50.72,258.32,89,100,2.02,RU,1607925208
Kutum,14.2,14.2,294.3,21,78,1.51,SD,1607925208
 , , , , , , , , 
Acarí,-15.43,-15.43,293.22,68,84,1.5,PE,1607925208
Saint-Augustin,51.23,51.23,270.14,97,100,9.46,CA,1607925208
Tual,-5.67,-5.67,302.5,75,100,6.24,ID,1607925208
Santa Isabel Rio Negro,-0.41,-0.41,295.99,95,98,1.02,BR,1607925209
Iglino,54.83,54.83,249.15,83,0,1,RU,1607925209
Nalhāti,24.3,24.3,301.21,29,0,3.39,IN,1607925003
Quesnel,53,53,266.15,100,90,1.56,CA,1607925209
Obsharovka,53.12,53.12,259.17,92,12,2.73,RU,1607925209
Maniitsoq,65.42,65.42,265.32,91,77,5.85,GL,1607925209
Hienghène,-20.68,-20.68,299.3,80,100,6.69,NC,1607925209
La Ronge,55.1,55.1,248.15,83,0,2.6,CA,1607925210
Bodaybo,57.85,57.85,242.92,79,4,0.85,RU,1607925210
 , , , , , , , , 
Methana,37.58,37.58,285.37,81,90,6.7,GR,1607925210
Lompoc,34.64,34.64,284.26,100,90,1.95,US,1607925192
Atar,20.52,20.52,290.15,27,99,3.07,MR,1607925210
Canas,10.43,10.43,297.15,73,0,2.6,CR,1607925210
Noumea,-22.28,-22.28,303.15,62,90,2.1,NC,1607925211
Rundu,-17.93,-17.93,295.38,77,79,2.03,NA,1607925211
Los Llanos de Aridane,28.66,28.66,290.15,88,90,2.95,ES,1607925211
Nemuro,43.32,43.32,269.15,41,20,3.6,JP,1607925211
Krk,45.03,45.03,279.15,60,0,4.1,HR,1607925211
Sistranda,63.73,63.73,277.15,72,0,8.2,NO,1607925211
Vryburg,-26.96,-26.96,298.89,50,13,5.51,ZA,1607925211
Vila Velha,-20.33,-20.33,297.15,83,0,3.1,BR,1607925212
Altagracia de Orituco,9.86,9.86,294.49,91,47,1.74,VE,1607925212
Daru,-9.08,-9.08,302.33,74,83,2.47,PG,1607925212
Batagay-Alyta,67.8,67.8,236.69,66,0,0.52,RU,1607925212
Aklavik,68.22,68.22,245.15,75,100,1,CA,1607925212
Poronaysk,49.22,49.22,263.71,84,42,2.65,RU,1607925212
Perth,-31.93,-31.93,297.04,28,0,6.2,AU,1607924766
Oussouye,12.48,12.48,293.15,94,0,1,SN,1607925212
Riacho de Santana,-13.61,-13.61,291.42,70,2,1.57,BR,1607925213
Kloulklubed,7.04,7.04,301.15,83,90,4.6,PW,1607925213
Idrinskoye,54.37,54.37,264.41,93,100,1.29,RU,1607925213
Emerald,-23.53,-23.53,306.15,31,75,3.6,AU,1607925213
Tura,25.52,25.52,296.74,47,0,1.94,IN,1607925203
Flinders,-34.58,-34.58,295.37,75,100,2.24,AU,1607925141
 , , , , , , , , 
Ürümqi,43.8,43.8,255.15,84,0,1,CN,1607924634
Nicoya,10.15,10.15,297.15,73,0,2.6,CR,1607925213
Sonoita,31.85,31.85,280.93,29,27,1.77,MX,1607925214
Warren,39.43,39.43,277.59,100,90,2.6,US,1607925214
Ganta,7.3,7.3,293.23,99,33,0.58,LR,1607925214
Berwick,41.05,41.05,276.48,79,50,0.76,US,1607925214
Amsterdam,52.37,52.37,281.48,93,75,7.2,NL,1607925107
Puerto Carreño,6.19,6.19,297.33,86,90,2.29,CO,1607925214
Lengshuitan,26.41,26.41,274.55,87,100,3.65,CN,1607925214
 , , , , , , , , 
Kincardine,56.07,56.07,283.15,81,75,4.6,GB,1607925215
Igrim,63.19,63.19,265.89,92,50,4.01,RU,1607925215
Mehamn,71.04,71.04,270.15,79,75,4.1,NO,1607925215
Tadine,-21.55,-21.55,299.36,78,95,8.16,NC,1607925215
Mareeba,-17,-17,303.15,62,100,4.6,AU,1607925215
Almaznyy,48.04,48.04,272.15,100,90,7,RU,1607925215
Médéa,36.26,36.26,279.15,100,20,3.1,DZ,1607925215
 , , , , , , , , 
Manzanillo,20.34,20.34,295.17,91,72,0.99,CU,1607925216
Viedma,-40.81,-40.81,292.04,25,50,3.58,AR,1607925216
Zaozyornoye,45.16,45.16,283.43,82,75,3.63,UA,1607925216
Naze,28.37,28.37,289.15,87,75,5.1,JP,1607925020
Prainha,-1.8,-1.8,297.65,80,89,1.63,BR,1607925216
Baracoa,20.35,20.35,298.13,85,67,3.7,CU,1607925216
São João da Barra,-21.64,-21.64,296.38,83,86,8.18,BR,1607925124
Beberibe,-4.18,-4.18,300.15,78,75,6.2,BR,1607925217
Bonney Lake,47.18,47.18,279.26,100,90,1.83,US,1607925176
Salamiyah,35.01,35.01,286.68,57,88,1.94,SY,1607925217
Charters Towers,-20.1,-20.1,305.77,30,100,3.52,AU,1607925217
Billings Metropolitan Area,45.78,45.78,265.93,85,90,4.1,US,1607925217
Kampong Thom,12.71,12.71,305.04,57,75,2.51,KH,1607925217
Megion,61.03,61.03,262.15,85,75,4,RU,1607925217
Pozo Colorado,-23.49,-23.49,294.74,95,66,3.25,PY,1607925217
Albeşti,47.7,47.7,274.82,89,20,0.5,RO,1607925218
Ginir,7.13,7.13,290.49,30,53,4.9,ET,1607925218
Kushmurun,52.45,52.45,261.16,92,27,1.99,KZ,1607925218
Honiara,-9.43,-9.43,302.15,79,75,1.88,SB,1607925218
Lugovoy,42.95,42.95,264.72,91,0,0.66,KZ,1607925218
Bandarbeyla,9.49,9.49,297.59,59,59,9.62,SO,1607925218
Chebsara,59.2,59.2,269.15,92,90,3,RU,1607925218
Qiongshan,20.01,20.01,302.15,66,40,5,CN,1607925219
Hofn,64.25,64.25,276.18,91,99,14.72,IS,1607925219
 , , , , , , , , 
Harlingen,26.19,26.19,291.15,20,1,8.2,US,1607925082
Kupang,-10.17,-10.17,301.15,78,75,3.6,ID,1607925219
Barcelos,41.54,41.54,286.15,100,75,4.1,PT,1607925219
Shimoda,34.67,34.67,287.15,44,75,8.2,JP,1607925219
Port Moresby,-9.44,-9.44,305.15,62,75,7.7,PG,1607925219
Raja,8.46,8.46,298.32,27,100,0.17,SS,1607925220
Manokwari,-0.87,-0.87,301.67,74,100,0.78,ID,1607925220
Ola,59.58,59.58,251.03,85,73,7.3,RU,1607925220
Weligama,5.97,5.97,301.78,64,34,2.05,LK,1607925220
Clyde River,70.47,70.47,246.15,75,1,2.6,CA,1607925220
Mažeikiai,56.32,56.32,272.51,99,100,2.1,LT,1607925220
 , , , , , , , , 
Bay Roberts,47.6,47.6,273.15,100,90,8.7,CA,1607925220
Trat,12.5,12.5,307.59,70,20,2.6,TH,1607925149
Socastee,33.68,33.68,288.71,100,90,2.6,US,1607925221
Broken Hill,-31.95,-31.95,308.15,13,2,4.6,AU,1607925217
Orlik,52.52,52.52,254.95,82,88,0.84,RU,1607925221
Marrakesh,31.63,31.63,286.15,93,75,1,MA,1607925221
Maningrida,-12.07,-12.07,305.06,58,97,1.26,AU,1607925221
Catia La Mar,10.6,10.6,298.49,72,7,3.26,VE,1607925209
Guane,22.2,22.2,295.03,90,34,2.14,CU,1607925221
Kumul,42.8,42.8,267.25,64,0,0.68,CN,1607924953
Santa Gertrudis,19.73,19.73,290.15,48,40,2.6,MX,1607925222
Mandurah,-32.55,-32.55,296.48,33,40,8.7,AU,1607925061
Moose Factory,51.26,51.26,260.15,84,90,5.1,CA,1607925222
 , , , , , , , , 
Khojaly District,39.91,39.91,277.44,71,85,0.62,AZ,1607925222
Brae,60.4,60.4,282.24,87,100,11.77,GB,1607925222
Sehwan,26.43,26.43,290.15,55,0,0.85,PK,1607925222
Sāmbhar,26.92,26.92,290.15,45,20,1.5,IN,1607925223
Takoradze,4.88,4.88,298.71,87,22,2.65,GH,1607925223
Santa Vitória do Palmar,-33.52,-33.52,287.3,87,48,3.38,BR,1607925223
Aykhal,66,66,240.15,67,0,1,RU,1607925223
Bagdarin,54.43,54.43,249.09,73,0,0.05,RU,1607925223
