City,Lat,Lng,Max Temp,Humidity,Cloudiness,Wind Speed,Country,Date
Hithadhoo,-0.6,73.08,81.95,68,1,8.46,MV,1608104898
NaN,NaN,NaN,NaN,NaN,NaN,NaN,NaN,NaN
Punta Arenas,-53.15,-70.92,48.2,61,0,44.96,CL,1608104898
Lipari,38.47,14.95,54,93,75,2.55,IT,1608104898
Taltal,-25.4,-70.48,59.65,79,62,1.12,CL,1608104898
Port Alfred,-33.59,26.89,73,72,10,5.01,ZA,1608104822
Ushuaia,-54.8,-68.3,44.6,85,40,43.62,AR,1608104899
Ponta Delgada,37.73,-25.67,60.8,93,75,8.05,PT,1608104899
Cape Town,-33.93,18.42,71.01,60,0,13.87,ZA,1608104778
Kaitangata,-46.28,169.85,57,92,100,3,NZ,1608104899
Bluff,-46.6,168.33,55,95,100,7,NZ,1608104899
Kapaa,22.08,-159.32,78.8,78,90,14.99,US,1608104899
Airai,-8.93,125.41,69.03,100,87,2.48,TL,1608104899
São Gabriel da Cachoeira,-0.13,-67.09,71.51,97,100,0.63,BR,1608104899
Albany,42.6,-73.97,19,44,94,4.72,US,1608104896
Aitape,-3.14,142.35,83.66,74,42,5.01,PG,1608104900
Hilo,19.73,-155.09,73.4,88,90,5.82,US,1608104531
Ukiah,39.15,-123.21,51.8,87,90,2.15,US,1608104900
Upernavik,72.79,-56.15,18.68,80,30,6.04,GL,1608104900
Mayo,38.89,-76.51,36,64,1,11.41,US,1608104900
Jilotzingo,19.87,-99.06,59,58,40,4.7,MX,1608104900
Saýat,38.78,63.88,37.2,75,0,8.1,TM,1608104900
Khatanga,71.97,102.5,-33.29,82,0,7.49,RU,1608104901
Kavieng,-2.57,150.8,84.63,72,100,8.05,PG,1608104901
Atuona,-9.8,-139.03,78.89,78,28,20.4,PF,1608104901
NaN,NaN,NaN,NaN,NaN,NaN,NaN,NaN,NaN
Castro,-24.79,-50.01,59.77,92,0,0.72,BR,1608104901
NaN,NaN,NaN,NaN,NaN,NaN,NaN,NaN,NaN
Norman Wells,65.28,-126.83,-18.4,75,75,14.99,CA,1608104901
Ancud,-41.87,-73.82,43,93,20,3.36,CL,1608104901
Mascalucia,37.59,15.03,55.99,93,0,2.24,IT,1608104902
Los Llanos de Aridane,28.66,-17.92,60.8,67,0,4.7,ES,1608104902
Pacasmayo,-7.4,-79.57,67.87,79,100,5.77,PE,1608104902
Mataura,-46.19,168.86,55,95,100,7,NZ,1608104902
Harar,9.31,42.13,71.98,22,0,6.85,ET,1608104902
NaN,NaN,NaN,NaN,NaN,NaN,NaN,NaN,NaN
Provideniya,64.38,-173.3,20.07,96,100,17.22,RU,1608104902
Faya,18.39,42.45,69.8,20,0,2.24,SA,1608104903
Mount Gambier,-37.83,140.77,60.8,87,90,12.75,AU,1608104903
Tabas,33.6,56.92,48.2,34,61,2.24,IR,1608104903
Senekal,-28.32,27.62,78.19,43,0,11.41,ZA,1608104903
Isangel,-19.55,169.27,77.22,78,71,17.29,VU,1608104903
Narsaq,60.92,-46.05,37.4,40,98,38.03,GL,1608104903
Katangli,51.71,143.23,7.97,87,100,23.91,RU,1608104903
Busselton,-33.65,115.33,79,42,0,5.99,AU,1608104903
Qaqortoq,60.72,-46.03,37.4,40,100,38.03,GL,1608104904
Vila Franca do Campo,37.72,-25.43,60.8,93,75,8.05,PT,1608104904
Azare,11.68,10.19,75.27,20,0,12.15,NG,1608104904
NaN,NaN,NaN,NaN,NaN,NaN,NaN,NaN,NaN
Hobart,-42.88,147.33,57.2,54,75,10.29,AU,1608104830
Jega,12.22,4.38,77.76,21,66,14.14,NG,1608104904
Saint-François,46.42,3.91,39.99,100,90,1.12,FR,1608104904
Tubigan,8.53,124.31,82,82,49,3,PH,1608104904
San Policarpo,12.18,125.51,82.6,78,37,14.56,PH,1608104905
Torbay,47.67,-52.73,30,63,90,49.44,CA,1608104905
Muhafazat Lahij,13.17,44.58,75.83,47,32,8.52,YE,1608104905
NaN,NaN,NaN,NaN,NaN,NaN,NaN,NaN,NaN
Bredasdorp,-34.53,20.04,69.8,56,0,4.7,ZA,1608104905
NaN,NaN,NaN,NaN,NaN,NaN,NaN,NaN,NaN
Prince Rupert,54.32,-130.32,46.4,87,90,11.41,CA,1608104704
Podstepki,53.52,49.14,15.8,78,40,8.95,RU,1608104905
Avarua,-21.21,-159.78,82.4,78,100,12.75,CK,1608104881
Lata,40.16,-8.33,53.01,92,100,7.11,PT,1608104906
Thompson,55.74,-97.86,-9.4,76,90,3.36,CA,1608104906
Hambantota,6.12,81.12,86,70,40,3.36,LK,1608104906
Basco,20.45,121.97,75,82,98,29.53,PH,1608104624
Tazovsky,67.47,78.7,-6.65,91,100,12.19,RU,1608104906
Barrow,71.29,-156.79,-7.6,69,1,24.16,US,1608104906
Khovd,48.01,91.64,7.47,78,20,2.86,MN,1608104906
Jamestown,42.1,-79.24,23,85,40,10.29,US,1608104906
Chokurdakh,70.63,147.92,-19.61,89,95,3.49,RU,1608104907
NaN,NaN,NaN,NaN,NaN,NaN,NaN,NaN,NaN
Tura,25.52,90.22,75.07,46,0,4.27,IN,1608104907
Saint-Philippe,-21.36,55.77,86,62,0,9.17,RE,1608104907
Mvomero,-6.25,38.67,87.8,62,40,12.75,TZ,1608104907
Rikitea,-23.12,-134.97,77.83,69,66,5.44,PF,1608104907
NaN,NaN,NaN,NaN,NaN,NaN,NaN,NaN,NaN
Ha Giang,22.83,104.98,59.47,49,88,2.71,VN,1608104746
Carnarvon,-24.87,113.63,78.8,69,0,28.86,AU,1608104908
Yellowknife,62.46,-114.35,-38.2,65,40,4.7,CA,1608104845
Terrell,32.74,-96.28,37.99,100,90,5.82,US,1608104908
Esperance,-33.87,121.9,68,49,75,19.46,AU,1608104908
Ossora,59.24,163.07,12.6,94,100,17.63,RU,1608104908
Hermanus,-34.42,19.23,72,61,0,3,ZA,1608104612
Pevek,69.7,170.31,8.31,92,4,7.83,RU,1608104908
Constitución,-35.33,-72.42,54.21,63,0,5.79,CL,1608104908
Fairbanks,64.84,-147.72,12.2,60,90,4.7,US,1608104751
Puerto Ayora,-0.74,-90.35,71.01,94,92,4,EC,1608104909
Vaini,-21.2,-175.2,77,83,75,14.99,TO,1608104909
Visnes,59.36,5.22,48,87,75,11.41,NO,1608104909
Panguna,-6.32,155.48,72.5,98,94,1.25,PG,1608104909
Marabu,4.41,114.01,86,74,40,5.82,MY,1608104769
Vostok,46.49,135.88,-14.19,91,91,5.57,RU,1608104909
High Level,58.52,-117.14,-4,83,90,5.82,CA,1608104910
Presidencia Roque Sáenz Peña,-26.79,-60.44,75.99,83,100,1.99,AR,1608104910
Olafsvik,64.89,-23.71,37.81,82,100,27.4,IS,1608104910
Øksfjord,70.24,22.35,32,94,75,13.87,NO,1608104910
Comrat,46.3,28.66,35.04,89,74,6.26,MD,1608104910
Matara,5.95,80.54,84.22,66,58,9.33,LK,1608104910
Orocué,4.79,-71.34,73.47,92,100,4.29,CO,1608104910
Mahébourg,-20.41,57.7,84.2,74,75,14.99,MU,1608104910
Ribas do Rio Pardo,-20.44,-53.76,71.8,84,96,4.07,BR,1608104911
Pangnirtung,66.15,-65.71,8.94,72,100,2.82,CA,1608104911
Aykhal,66,111.5,-25.6,74,90,6.71,RU,1608104911
Gimli,50.63,-96.99,14,92,100,12.75,CA,1608104816
George Town,5.41,100.34,87.8,74,20,11.41,MY,1608104911
Kayerkan,69.35,87.76,-5.8,83,40,20.13,RU,1608104911
Longyearbyen,78.22,15.64,3.2,59,0,19.46,SJ,1608104911
Nikolskoye,59.7,30.79,32,97,75,11.18,RU,1608104912
Riyadh,24.69,46.72,66.2,25,0,10.29,SA,1608104631
Ust-Nera,64.57,143.2,-24.52,77,84,2.82,RU,1608104912
Mattru,7.62,-11.83,75.65,94,86,2.24,SL,1608104912
Poum,-20.23,164.02,79.16,74,63,9.08,NC,1608104912
Bethel,41.37,-73.41,23,45,1,5.82,US,1608104800
NaN,NaN,NaN,NaN,NaN,NaN,NaN,NaN,NaN
Ishim,56.11,69.49,16.9,93,98,11.16,RU,1608104912
Adrar,20.5,-10.07,65.61,26,65,7.07,MR,1608104913
NaN,NaN,NaN,NaN,NaN,NaN,NaN,NaN,NaN
Tautira,-17.73,-149.15,78.8,61,0,5.82,PF,1608104913
Hellvik,59.92,5.78,46,100,75,11.41,NO,1608104913
Manzanillo,20.34,-77.12,70.21,92,2,5.44,CU,1608104913
Dali,25.7,100.18,61.65,38,0,9.69,CN,1608104913
Tīkamgarh,24.75,78.83,72.7,45,7,9.73,IN,1608104913
Vao,-22.67,167.48,76.24,73,27,22.08,NC,1608104778
Evanston,42.04,-87.69,30.99,68,90,11.41,US,1608104914
NaN,NaN,NaN,NaN,NaN,NaN,NaN,NaN,NaN
Egvekinot,66.32,-179.17,8.17,94,92,10.71,RU,1608104914
Hasaki,35.73,140.83,42.8,35,20,6.93,JP,1608104914
Acapulco de Juárez,16.86,-99.89,75.4,76,57,4.23,MX,1608104734
Haines Junction,60.75,-137.51,8.6,92,100,1.12,CA,1608104914
Chara,56.91,118.26,-12.77,78,100,0.45,RU,1608104914
Sibu,2.3,111.82,84.2,83,40,2.24,MY,1608104914
Zhigansk,66.77,123.37,-40.94,81,23,0.18,RU,1608104915
Lüderitz,-26.65,15.16,64.4,72,0,5.82,NA,1608104915
Cidreira,-30.18,-50.21,71.04,92,25,8.77,BR,1608104915
Mayor Pablo Lagerenza,-19.93,-60.77,76.01,72,36,6.71,PY,1608104915
Lebu,-37.62,-73.65,50.27,78,0,14.65,CL,1608104915
Rock Sound,24.9,-76.2,76.71,77,0,9.28,BS,1608104915
Saint Paul Harbor,57.79,-152.41,26.6,79,1,9.17,US,1608104915
Tilichiki,60.47,166.1,-1.12,94,100,14.5,RU,1608104915
Port Hardy,50.7,-127.42,44.6,100,90,4.7,CA,1608104916
Bengkulu,-3.8,102.27,72.5,93,100,8.16,ID,1608104916
Saint George,37.1,-113.58,32,76,1,4.7,US,1608104916
Vieques,18.43,-65.83,75.2,88,75,4.7,PR,1608104916
Dibulla,11.27,-73.31,74.28,84,100,7.96,CO,1608104916
Antalaha,-14.9,50.28,83.88,64,54,9.22,MG,1608104916
Port Hedland,-20.32,118.57,91.4,55,83,13.87,AU,1608104916
Ladário,-19,-57.6,72.39,92,91,1.97,BR,1608104917
NaN,NaN,NaN,NaN,NaN,NaN,NaN,NaN,NaN
Sioux Lookout,50.1,-91.92,6.8,84,90,3.36,CA,1608104917
Sibolga,1.74,98.78,80.17,81,100,3.67,ID,1608104917
NaN,NaN,NaN,NaN,NaN,NaN,NaN,NaN,NaN
Qaanaaq,77.48,-69.36,5.13,70,0,6.42,GL,1608104917
Port Macquarie,-31.43,152.92,77,73,75,18.34,AU,1608104822
Saskylakh,71.92,114.08,-32.62,83,54,3.58,RU,1608104917
Lewistown,40.6,-77.57,26.01,73,1,3.36,US,1608104918
Vāsudevanallūr,9.23,77.42,81,66,100,7.78,IN,1608104918
Wieluń,51.22,18.57,37,80,98,8.01,PL,1608104918
Kiryat Gat,31.61,34.76,59,100,95,1.01,IL,1608104918
NaN,NaN,NaN,NaN,NaN,NaN,NaN,NaN,NaN
Olinda,-8.01,-34.86,78.8,69,40,8.05,BR,1608104918
Līsakovsk,52.54,62.49,18.34,91,89,12.3,KZ,1608104918
Jacqueville,5.21,-4.41,80.6,88,20,5.82,CI,1608104918
Ponta do Sol,32.67,-17.1,64.4,72,40,8.05,PT,1608104919
NaN,NaN,NaN,NaN,NaN,NaN,NaN,NaN,NaN
Grande Prairie,55.17,-118.8,8.6,84,90,4.7,CA,1608104919
Okhotsk,59.38,143.3,0.93,85,100,17.36,RU,1608104919
Aras,42.56,-2.36,37.4,100,20,6.4,ES,1608104919
Bariloche,-41.15,-71.31,37.4,77,0,5.82,AR,1608104919
Gravelbourg,49.88,-106.55,28.4,79,100,11.41,CA,1608104919
Umluj,25.02,37.27,72.82,39,0,10.11,SA,1608104919
Calvià,39.57,2.51,48,87,0,5.82,ES,1608104920
High Prairie,55.43,-116.49,12.2,85,100,3.36,CA,1608104920
Wainwright,52.84,-110.86,10.4,92,99,5.82,CA,1608104703
Tuktoyaktuk,69.45,-133.04,-18.51,89,100,10.38,CA,1608104920
Khovu-Aksy,51.13,93.6,9.7,91,76,0.89,RU,1608104920
La Asuncion,11.03,-63.86,66.2,100,8,9.17,VE,1608104920
Moerai,-22.43,-151.33,79.72,75,56,11.72,PF,1608104920
Baniachang,24.52,91.37,81.05,36,0,1.74,BD,1608104921
NaN,NaN,NaN,NaN,NaN,NaN,NaN,NaN,NaN
Mossamedes,-15.2,12.15,71.22,68,4,3.18,AO,1608104921
NaN,NaN,NaN,NaN,NaN,NaN,NaN,NaN,NaN
Katsuura,35.13,140.3,50,46,75,19.46,JP,1608104921
Kelmė,55.63,22.93,33.8,94,90,11.41,LT,1608104921
Bilibino,68.05,166.44,-2.06,89,100,2.1,RU,1608104921
São Filipe,14.9,-24.5,73.26,72,95,8.97,CV,1608104921
Alikalia,9.17,-11.4,71.19,94,48,1.03,SL,1608104922
Harper,4.38,-7.72,78.93,81,100,1.48,LR,1608104922
Skibbereen,51.55,-9.27,44.6,93,75,19.46,IE,1608104922
Rocha,-34.48,-54.33,53.6,82,0,3.91,UY,1608104726
NaN,NaN,NaN,NaN,NaN,NaN,NaN,NaN,NaN
Tateyama,34.98,139.87,50,46,75,19.46,JP,1608104922
NaN,NaN,NaN,NaN,NaN,NaN,NaN,NaN,NaN
Ferme-Neuve,46.7,-75.45,-9.4,83,28,3.36,CA,1608104922
Tekāri,24.93,84.83,66.2,63,75,5.82,IN,1608104923
Peace River,56.25,-117.29,10,77,90,12.75,CA,1608104923
Khombole,14.77,-16.7,66.2,93,0,12.75,SN,1608104923
Luganville,-15.53,167.17,79.83,83,71,13.42,VU,1608104923
Talnakh,69.49,88.4,-5.8,83,40,20.13,RU,1608104923
Rincon,32.3,-81.24,46.4,87,90,8.05,US,1608104923
Palaia Fokaia,37.72,23.95,57,71,40,14.99,GR,1608104923
Kidal,18.44,1.41,74.8,19,0,11.45,ML,1608104924
Arraial do Cabo,-22.97,-42.03,74.7,92,99,8.81,BR,1608104924
Jamūī,24.92,86.22,80.67,33,0,10.02,IN,1608104924
New Norfolk,-42.78,147.06,55.99,58,100,3,AU,1608104924
Maniitsoq,65.42,-52.9,25.16,87,8,6.67,GL,1608104924
Porto Santo,33.07,-16.34,62.6,88,75,13.87,PT,1608104924
Guilin,25.28,110.29,42.8,70,90,6.71,CN,1608104924
Bereda,43.27,-7.54,48.99,100,100,8.01,ES,1608104924
Inhambane,-23.86,35.38,87.8,62,40,6.93,MZ,1608104925
Pesqueira,-8.36,-36.7,67.28,93,94,5.57,BR,1608104925
Ol'ga,43.74,135.29,5.92,76,100,11.59,RU,1608104925
Xingyi,24.19,102.82,65.5,59,46,9.53,CN,1608104925
Maku,39.29,44.45,44.58,63,100,1.92,IR,1608104925
Rørvik,64.86,11.24,32,73,75,12.66,NO,1608104925
Yei,4.09,30.68,90.86,18,90,9.26,SS,1608104925
Iqaluit,63.75,-68.51,19.4,85,90,4.7,CA,1608104925
Leh,34.17,77.58,12.83,73,35,4.7,IN,1608104710
Moundou,8.57,16.08,83.98,15,21,5.14,TD,1608104926
Kharp,66.8,65.81,0.77,91,100,3.74,RU,1608104926
Nautla,20.22,-96.78,70.79,87,94,16.53,MX,1608104926
NaN,NaN,NaN,NaN,NaN,NaN,NaN,NaN,NaN
NaN,NaN,NaN,NaN,NaN,NaN,NaN,NaN,NaN
Hobyo,5.35,48.53,83.08,59,1,20.47,SO,1608104926
Kudahuvadhoo,2.67,72.89,82.11,70,12,4.18,MV,1608104926
Telhāra,21.03,76.84,85.26,37,97,5.12,IN,1608104927
Chui,-33.7,-53.46,64.08,77,86,10.47,UY,1608104927
Gamba,-2.65,10,74.61,86,100,7.34,GA,1608104927
Lingdong,46.57,131.15,-3.78,84,20,12.39,CN,1608104927
NaN,NaN,NaN,NaN,NaN,NaN,NaN,NaN,NaN
NaN,NaN,NaN,NaN,NaN,NaN,NaN,NaN,NaN
Ørnes,66.87,13.71,35.6,69,75,13.87,NO,1608104927
Richards Bay,-28.78,32.04,78.13,62,59,12.01,ZA,1608104927
Kitui,-1.37,38.01,74.21,64,87,4.59,KE,1608104665
Poconé,-16.26,-56.62,73.9,81,90,3.38,BR,1608104928
Singapore,1.29,103.85,84.2,74,40,4.7,SG,1608104928
Sinnamary,5.38,-52.95,77.45,87,39,6.17,GF,1608104928
Awjilah,29.11,21.29,58.06,63,2,4.85,LY,1608104928
Salinópolis,-0.61,-47.36,78.62,83,84,5.12,BR,1608104928
Port Keats,-14.25,129.55,91.11,57,100,8.34,AU,1608104928
Ribeira Grande,38.52,-28.7,64.4,88,75,19.46,PT,1608104929
Tarpon Springs,28.15,-82.76,59,93,100,4.7,US,1608104929
Xichang,27.9,102.26,64.99,36,1,6.22,CN,1608104929
Bambous Virieux,-20.34,57.76,84.2,74,75,14.99,MU,1608104929
Tasiilaq,65.61,-37.64,28.4,46,100,20.8,GL,1608104929
Comodoro Rivadavia,-45.87,-67.5,59,41,0,14.99,AR,1608104929
Mastic Beach,40.77,-72.85,28.4,46,1,5.82,US,1608104929
Kalabo,-14.97,22.68,73.29,81,100,6.71,ZM,1608104929
Manitouwadge,49.12,-85.84,24.8,85,100,10.29,CA,1608104930
North Branch,45.51,-92.98,17.6,72,90,9.46,US,1608104930
Lompoc,34.64,-120.46,51.8,50,1,5.82,US,1608104848
Yenagoa,4.92,6.26,81.5,82,0,3.62,NG,1608104930
NaN,NaN,NaN,NaN,NaN,NaN,NaN,NaN,NaN
Laguna de Perlas,12.34,-83.67,75.67,88,44,3.6,NI,1608104930
Ryōtsu-minato,38.08,138.43,37.4,59,75,31.09,JP,1608104930
Souillac,-20.52,57.52,84.2,74,75,14.99,MU,1608104930
Tezu,27.92,96.17,76.32,25,0,2.55,IN,1608104931
Arrondissement de Niort,46.33,-0.33,42.01,95,46,1.99,FR,1608104931
Shenjiamen,29.96,122.3,45.28,64,25,19.71,CN,1608104931
Srednekolymsk,67.45,153.68,-19.71,87,100,11.48,RU,1608104931
Uplawmoor,55.76,-4.5,45,93,100,13.87,GB,1608104931
NaN,NaN,NaN,NaN,NaN,NaN,NaN,NaN,NaN
Tuatapere,-46.13,167.68,55,95,100,7,NZ,1608104931
Nanortalik,60.14,-45.24,29.32,90,98,13.49,GL,1608104932
NaN,NaN,NaN,NaN,NaN,NaN,NaN,NaN,NaN
Port-Gentil,-0.72,8.78,80.6,88,40,5.82,GA,1608104932
Kruisfontein,-34,24.73,75.99,56,16,4,ZA,1608104844
Daud Khel,32.88,71.57,62.06,30,0,1.25,PK,1608104932
Bidor,4.11,101.29,87.01,79,40,5.82,MY,1608104932
Pustoshka,56.34,29.37,29.17,97,100,9.73,RU,1608104932
Saint-Joseph,-21.37,55.62,86,62,0,9.17,RE,1608104932
Urusha,54.05,122.9,-16.2,85,0,2.62,RU,1608104933
NaN,NaN,NaN,NaN,NaN,NaN,NaN,NaN,NaN
Bubaque,11.28,-15.83,77.45,65,49,13.78,GW,1608104933
Cockburn Town,21.46,-71.14,77.07,73,0,15.03,TC,1608104933
Geraldton,-28.77,114.6,77,57,0,25.28,AU,1608104933
NaN,NaN,NaN,NaN,NaN,NaN,NaN,NaN,NaN
East London,-33.02,27.91,73.4,56,0,10.29,ZA,1608104933
Bulgan,48.81,103.53,11.57,86,0,5.44,MN,1608104933
NaN,NaN,NaN,NaN,NaN,NaN,NaN,NaN,NaN
Saldanha,-33.01,17.94,71.6,49,0,6.93,ZA,1608104934
Avera,33.19,-82.53,42.8,87,90,6.93,US,1608104934
Yingkou,40.66,122.23,16.93,71,0,0.83,CN,1608104934
Port Elizabeth,-33.92,25.57,69.8,68,20,12.75,ZA,1608104934
Tiksi,71.69,128.87,-23.44,87,100,3.4,RU,1608104934
Nanchong,30.8,106.08,46.02,76,99,3.74,CN,1608104934
Lokosovo,61.13,74.82,5.27,94,100,7.67,RU,1608104935
Rawson,-43.3,-65.1,58.69,43,0,14.7,AR,1608104935
Trincomalee,8.57,81.23,80.51,73,0,5.66,LK,1608104833
Mana,5.66,-53.78,76.55,87,72,5.48,GF,1608104935
Faanui,-16.48,-151.75,80.1,79,62,18.7,PF,1608104935
Porosozero,62.72,32.73,30.22,99,100,6.91,RU,1608104935
NaN,NaN,NaN,NaN,NaN,NaN,NaN,NaN,NaN
Kvam,61.67,9.69,26.19,89,0,4.12,NO,1608104935
Nyandoma,61.67,40.2,16.61,98,88,5.37,RU,1608104936
Bushehr,28.97,50.84,71.6,56,0,16.11,IR,1608104936
Carácuaro,19.01,-101.13,69.39,62,13,2.8,MX,1608104936
Rio Grande,-32.03,-52.1,68.41,90,1,7.49,BR,1608104740
San Patricio,28.02,-97.52,53.01,71,1,14.99,US,1608104936
Soroti,1.71,33.61,83.55,28,0,7.25,UG,1608104842
Matias Barbosa,-21.87,-43.32,68.11,93,92,1.61,BR,1608104936
Dhidhdhoo,6.88,73.1,82.13,65,71,7.65,MV,1608104937
Ketchikan,55.34,-131.65,44.6,93,90,18.34,US,1608104749
Kuito,-12.38,16.93,67.84,71,97,5.37,AO,1608104937
Palmer,42.16,-72.33,21.99,48,1,5.82,US,1608104937
Hueytamalco,19.95,-97.27,62.76,80,67,3.71,MX,1608104937
Bač,45.39,19.24,39.2,86,90,2.24,RS,1608104937
Mar del Plata,-38,-57.56,54,81,0,9.17,AR,1608104682
Dikson,73.51,80.55,-16.51,89,99,3.71,RU,1608104937
Rome,43.21,-75.46,15.8,56,1,3.36,US,1608104938
Ørje,59.48,11.66,34,97,6,3.53,NO,1608104938
Nicoya,10.15,-85.45,71.53,92,59,1.57,CR,1608104938
Réo,12.32,-2.47,80.22,17,82,10.98,BF,1608104938
Bima,-8.47,118.72,83.19,76,93,2.15,ID,1608104938
Bogandé,12.97,-0.14,79.74,18,0,10.4,BF,1608104938
NaN,NaN,NaN,NaN,NaN,NaN,NaN,NaN,NaN
Praia,14.92,-23.51,69.8,77,20,13.87,CV,1608104715
Pisco,-13.7,-76.22,64.4,93,100,6.93,PE,1608104939
Khāpa,21.43,78.97,82.4,54,40,2.48,IN,1608104939
Bintulu,3.17,113.03,86,74,40,9.17,MY,1608104839
NaN,NaN,NaN,NaN,NaN,NaN,NaN,NaN,NaN
Lorengau,-2.02,147.27,83.52,75,100,4.54,PG,1608104939
Stepnyak,52.83,70.78,14.92,90,12,15.03,KZ,1608104939
Cunha,-23.07,-44.96,63.7,88,92,1.54,BR,1608104939
Aljezur,37.32,-8.8,55.99,100,100,5.01,PT,1608104940
Caborca,30.58,-111.1,47.93,46,0,5.06,MX,1608104940
Tarakan,3.3,117.63,84.11,68,20,8.5,ID,1608104840
Cherskiy,68.75,161.3,-21.24,87,100,5.19,RU,1608104940
Yārāda,17.65,83.27,84.2,54,20,10.29,IN,1608104940
Lázaro Cárdenas,17.96,-102.2,72.43,91,50,4.45,MX,1608104940
Malakal,9.53,31.66,91.8,12,0,13.13,SS,1608104940
Horishni Plavni,49.01,33.65,31.37,94,1,5.41,UA,1608104941
Hong Kong,22.29,114.16,60.01,70,4,1.01,HK,1608104744
Iracoubo,5.48,-53.2,77.29,87,75,5.88,GF,1608104941
NaN,NaN,NaN,NaN,NaN,NaN,NaN,NaN,NaN
Najrān,17.49,44.13,66.2,19,0,4.7,SA,1608104941
Marmora,44.46,7.09,41,93,87,5.82,IT,1608104941
Ilhabela,-23.78,-45.36,73.53,86,61,2.86,BR,1608104795
Butaritari,3.07,172.79,82.35,80,0,17.76,KI,1608104942
Ekhabi,53.51,142.97,19.04,96,100,27.11,RU,1608104942
Dingle,11,122.67,80.53,86,98,10.8,PH,1608104942
San Julián,21.02,-102.17,51.62,55,0,4.23,MX,1608104942
Antofagasta,-23.65,-70.4,66.2,72,90,4.7,CL,1608104763
North Bend,43.41,-124.22,46.99,100,20,5.82,US,1608104942
Sur,22.57,59.53,74.35,40,3,13.24,OM,1608104815
Dryden,49.78,-92.75,8.6,92,90,6.93,CA,1608104943
Rohnert Park,38.34,-122.7,46.99,94,1,1.66,US,1608104943
Naze,28.37,129.48,59,71,75,8.05,JP,1608104943
Cabo San Lucas,22.89,-109.91,64,77,1,3,MX,1608104943
Chapais,49.78,-74.85,-29.2,73,1,2.24,CA,1608104943
Buala,-8.14,159.59,81.86,82,100,6.89,SB,1608104944
Cayenne,4.93,-52.33,75.2,100,17,3.36,GF,1608104944
Palmares,-8.68,-35.59,71.06,93,97,1.5,BR,1608104729
Shakawe,-18.37,21.85,79.34,61,78,6.06,BW,1608104944
Coruripe,-10.13,-36.18,74.68,88,59,6.17,BR,1608104944
Roald,62.58,6.13,44.6,87,75,4.7,NO,1608104944
Boyolangu,-8.12,111.89,82.15,75,87,10.33,ID,1608104944
Kirakira,-10.45,161.92,82.54,77,48,5.7,SB,1608104945
Danville,36.59,-79.39,33.8,69,90,8.05,US,1608104945
Yumen,40.28,97.2,18.07,86,11,11.34,CN,1608104945
Caucayá,-0.19,-74.78,69.84,97,29,1.05,CO,1608104945
Bria,6.54,21.99,88.59,16,35,7.78,CF,1608104945
Batticaloa,7.71,81.69,82.38,62,0,5.17,LK,1608104945
Alvarães,-3.22,-64.8,72.16,98,99,1.79,BR,1608104945
Klaksvík,62.23,-6.59,42.8,100,2,5.82,FO,1608104945
Dunda,-8.12,34.25,81.7,55,48,2.28,TZ,1608104946
Malino,15.13,120.67,87.8,58,75,4.7,PH,1608104946
Mersing,2.43,103.84,86,74,40,9.17,MY,1608104946
Iwanai,42.97,140.51,24.51,92,100,13.18,JP,1608104946
Poso,-1.4,120.75,83.89,71,100,2.71,ID,1608104946
Berlevåg,70.86,29.09,30.2,58,75,16.11,NO,1608104946
Lárdos,36.09,28.02,64,72,0,4.7,GR,1608104946
Ayan,56.45,138.17,-3.98,90,99,20.2,RU,1608104947
Skagen,57.72,10.58,42.8,100,90,8.05,DK,1608104947
Burns Lake,54.23,-125.75,28.4,92,96,4.7,CA,1608104703
Blagoyevo,63.37,47.92,11.91,96,91,4.38,RU,1608104947
Allāpalli,19.42,80.07,90.72,35,0,2.1,IN,1608104947
Villa Tecolutilla,18.28,-93.32,70.66,95,12,2.77,MX,1608104947
Manggar,-2.88,108.27,83.91,76,98,8.32,ID,1608104947
Tokur,53.13,132.9,-25.47,85,100,2.77,RU,1608104948
NaN,NaN,NaN,NaN,NaN,NaN,NaN,NaN,NaN
Dalbandin,28.89,64.41,50.5,35,0,7.96,PK,1608104948
Cedar City,37.68,-113.06,15.8,78,1,5.82,US,1608104948
Pārsābād,39.65,47.92,41,100,75,6.93,IR,1608104711
Nabire,-3.37,135.48,83.82,78,77,3.11,ID,1608104948
Nemuro,43.32,145.57,21.2,67,40,3.36,JP,1608104913
Dongsheng,39.82,109.98,14.77,85,0,8.05,CN,1608104949
Donskoye,45.46,41.97,32,84,90,13.42,RU,1608104949
Somerset,40.57,-74.55,27,62,1,5.32,US,1608104949
Verkhnevilyuysk,63.45,120.32,-18.9,87,100,4.59,RU,1608104949
Clemson,34.68,-82.84,42.01,69,90,6.93,US,1608104702
Sitka,57.05,-135.33,42.8,70,90,3.36,US,1608104949
Meulaboh,4.14,96.13,80.76,82,100,7,ID,1608104949
Murbād,19.25,73.4,89.6,52,20,4.7,IN,1608104949
Marsá Maţrūḩ,31.35,27.25,64.4,72,75,9.17,EG,1608104950
Clyde River,70.47,-68.59,1.4,70,1,27.51,CA,1608104950
Caravelas,-17.71,-39.25,70.75,92,69,2.21,BR,1608104950
Tabuk,17.42,121.44,76.23,86,53,7.92,PH,1608104842
Yambio,4.57,28.4,91.99,21,28,8.81,SS,1608104950
Ürümqi,43.8,87.6,3.2,84,0,4.47,CN,1608104950
Vila,42.03,-8.16,48,94,100,1.01,PT,1608104950
Jackson,42.42,-122.83,44.6,87,90,2.19,US,1608104950
Severo-Kuril'sk,50.68,156.12,29.12,89,98,5.14,RU,1608104951
Yulara,-25.24,130.99,100.4,17,99,8.05,AU,1608104951
Baykit,61.67,96.37,-19.16,82,91,4.79,RU,1608104951
Maumere,-8.62,122.21,83.21,73,75,4.72,ID,1608104951
Robertsport,6.75,-11.37,78.67,83,83,2.19,LR,1608104951
Marrakesh,31.63,-8.01,55.4,93,75,2.24,MA,1608104758
Kurtalan,37.93,41.7,50,93,75,2.06,TR,1608104952
Kanniyākumāri,8.08,77.57,82.71,70,88,18.25,IN,1608104952
Tuscaloosa,33.21,-87.57,48.99,93,90,2.39,US,1608104952
Pangai,-19.8,-174.35,78.28,79,100,16.53,TO,1608104952
Bathsheba,13.22,-59.52,73.4,94,20,5.82,BB,1608104952
Oussouye,12.48,-16.55,69.8,94,0,4.7,SN,1608104952
Taoudenni,22.68,-3.98,66.24,25,0,7.43,ML,1608104952
Pontes e Lacerda,-15.23,-59.34,70.99,83,41,1.25,BR,1608104953
Paamiut,61.99,-49.67,32.67,84,1,7.74,GL,1608104953
Salalah,17.02,54.09,82.4,39,20,12.75,OM,1608104953
Union,40.63,-74.27,28.4,46,1,6.93,US,1608104953
Kolokani,13.57,-8.03,75.97,25,81,5.14,ML,1608104953
NaN,NaN,NaN,NaN,NaN,NaN,NaN,NaN,NaN
Fortuna,40.6,-124.16,48.99,95,92,1.01,US,1608104953
Murray Bridge,-35.12,139.27,77,58,5,15.37,AU,1608104954
Berja,36.85,-2.95,53.6,62,75,4.7,ES,1608104954
Banda Aceh,5.56,95.32,81.86,76,100,5.95,ID,1608104954
NaN,NaN,NaN,NaN,NaN,NaN,NaN,NaN,NaN
Bodden Town,19.28,-81.25,79,84,14,5.01,KY,1608104954
Kenai,60.55,-151.26,28,92,90,3.98,US,1608104954
Manono,-7.3,27.42,83.46,73,30,1.48,CD,1608104954
Alice Springs,-23.7,133.88,102.99,13,74,12.75,AU,1608104955
San Rafael,-34.62,-68.33,59.4,34,0,1.05,AR,1608104955
Boryslav,49.29,23.43,32,79,90,4.47,UA,1608104955
Lagos,6.58,3.75,78.8,94,40,4.7,NG,1608104955
Muravlenko,63.79,74.52,-4.25,92,99,12.66,RU,1608104955
NaN,NaN,NaN,NaN,NaN,NaN,NaN,NaN,NaN
Natal,-5.79,-35.21,77,83,20,3.36,BR,1608104660
Jumla,29.27,82.18,52.02,32,0,8.43,NP,1608104955
Shelburne,44.08,-80.2,16,83,100,8.93,CA,1608104956
Pochutla,15.74,-96.47,66.99,88,0,2.62,MX,1608104956
Potchefstroom,-26.72,27.1,80.11,40,0,7.23,ZA,1608104956
Touros,-5.2,-35.46,75.2,88,40,3.36,BR,1608104956
Gibara,21.11,-76.13,69.8,100,5,6.93,CU,1608104956
Ust'-Kut,56.79,105.77,5.36,89,100,11.36,RU,1608104956
La Ronge,55.1,-105.28,3.2,84,100,2.24,CA,1608104956
Longkou,37.65,120.33,32.02,83,0,13.85,CN,1608104957
Dalvik,65.97,-18.53,37.4,88,90,11.41,IS,1608104957
Kisi,9.08,3.85,82.11,50,4,2.75,NG,1608104957
Marinette,45.1,-87.63,24.8,92,90,7.67,US,1608104957
Talcahuano,-36.72,-73.12,50,87,0,3.36,CL,1608104957
Tagusao,9.19,117.81,84.56,74,17,11.5,PH,1608104958
Mīnāb,27.15,57.08,77,16,0,6.93,IR,1608104958
Sangar,63.92,127.47,-47.02,77,51,4.23,RU,1608104958
Fresno,36.67,-119.83,44.6,81,1,1.07,US,1608104906
Manga,11.66,-1.07,79.27,19,76,8.66,BF,1608104958
Khuzhir,53.19,107.34,20.64,82,35,19.01,RU,1608104958
Pātūr,20.45,76.93,84.88,36,98,5.32,IN,1608104958
Manicoré,-5.81,-61.3,71.1,97,99,0.96,BR,1608104959
Yenangyaung,20.47,94.88,86.92,45,0,6.04,MM,1608104959
NaN,NaN,NaN,NaN,NaN,NaN,NaN,NaN,NaN
Sechenovo,55.22,45.89,19.33,98,99,6.11,RU,1608104959
Teya,60.38,92.63,-15.03,85,34,3.78,RU,1608104959
Aleksandrovsk-Sakhalinskiy,50.9,142.16,10.09,94,100,22.39,RU,1608104959
Ahipara,-35.17,173.17,60.24,82,0,9.75,NZ,1608104959
Troitskoye,52.98,84.68,11.41,95,100,7.65,RU,1608104959
Stornoway,58.21,-6.39,46.99,75,75,17.22,GB,1608104960
Kazygurt,41.76,69.39,37.4,47,0,6.93,KZ,1608104960
Kudat,6.88,116.85,80.6,83,20,4.7,MY,1608104960
Ust-Kuyga,70.02,135.6,-27.76,82,100,2.33,RU,1608104960
NaN,NaN,NaN,NaN,NaN,NaN,NaN,NaN,NaN
Abu Dhabi,24.47,54.37,75.2,49,0,4.7,AE,1608104960
Payson,40.04,-111.73,28.4,74,90,4.16,US,1608104960
Namwala,-15.75,26.44,72.5,83,100,4.79,ZM,1608104961
Ishigaki,24.34,124.16,64.4,88,75,24.16,JP,1608104907
Walvis Bay,-22.96,14.51,61,82,100,9.17,NA,1608104961
Mackay,-21.15,149.2,84.2,74,91,16.11,AU,1608104961
Torbat-e Jām,35.24,60.62,41.5,55,25,6.24,IR,1608104961
Periyanegamam,10.73,77.1,82.4,58,75,10.29,IN,1608104961
NaN,NaN,NaN,NaN,NaN,NaN,NaN,NaN,NaN
Barra Patuca,15.8,-84.28,74.79,87,45,1.59,HN,1608104961
Zhoukou,33.63,114.63,42.22,53,13,2.93,CN,1608104962
Beranang,2.87,101.87,87.01,74,40,3.36,MY,1608104962
NaN,NaN,NaN,NaN,NaN,NaN,NaN,NaN,NaN
Bowen,-20.02,148.23,84.2,66,98,10.29,AU,1608104962
NaN,NaN,NaN,NaN,NaN,NaN,NaN,NaN,NaN
Kralendijk,12.15,-68.27,77,88,42,8.05,BQ,1608104962
Mehamn,71.04,27.85,28.4,63,90,18.34,NO,1608104962
Hofn,64.25,-15.21,39.02,91,100,22.19,IS,1608104963
Kumul,42.8,93.45,24.87,65,0,2.57,CN,1608104692
NaN,NaN,NaN,NaN,NaN,NaN,NaN,NaN,NaN
Otuzco,-7.9,-78.58,50.47,98,100,1.3,PE,1608104963
Umm Kaddadah,13.6,26.69,75.22,20,6,20.49,SD,1608104963
Mbini,1.57,9.61,78.8,100,20,4.88,GQ,1608104963
Cienfuegos,22.15,-80.44,73.4,94,55,2.24,CU,1608104963
Enshi,30.3,109.48,48.04,51,96,0.54,CN,1608104963
NaN,NaN,NaN,NaN,NaN,NaN,NaN,NaN,NaN
NaN,NaN,NaN,NaN,NaN,NaN,NaN,NaN,NaN
Khani,41.96,42.96,53.6,93,90,4.7,GE,1608104964
Soyo,-6.13,12.37,78.19,82,100,5.91,AO,1608104964
São Félix do Xingu,-6.64,-51.99,69.44,93,43,0.45,BR,1608104964
Malchevskaya,49.06,40.36,27.36,99,100,9.66,RU,1608104964
Nizhnevartovsk,60.93,76.55,-0.4,77,90,8.95,RU,1608104964
Hirara,24.8,125.28,64.4,82,75,17.22,JP,1608104965
Bako,5.78,36.57,80.69,30,0,2.17,ET,1608104965
Geilo,60.53,8.21,21.99,89,84,7.23,NO,1608104965
Atar,20.52,-13.05,63.46,30,7,8.46,MR,1608104965
Sorong,-0.88,131.25,82.53,79,100,10.54,ID,1608104965
NaN,NaN,NaN,NaN,NaN,NaN,NaN,NaN,NaN
Kloulklubed,7.04,134.26,78.8,88,90,8.05,PW,1608104965
Wilhelmsburg,48.11,15.61,37,79,100,4,AT,1608104965
NaN,NaN,NaN,NaN,NaN,NaN,NaN,NaN,NaN
Aborlan,9.44,118.55,87.8,70,75,18.34,PH,1608104966
Diffa,13.32,12.61,76.42,25,45,12.3,NE,1608104966
Malakanagiri,18.35,81.9,88.52,39,1,0.56,IN,1608104966
Qingdao,36.1,120.37,37.4,25,0,11.18,CN,1608104966
Grindavik,63.84,-22.43,41,75,90,12.75,IS,1608104966
Coahuayana Viejo,18.73,-103.68,69.06,88,4,3.13,MX,1608104966
Kānt,27.8,79.8,72.05,22,0,9.24,IN,1608104967
Narrabri,-30.32,149.78,82.4,51,90,12.75,AU,1608104967
Mezen',65.85,44.24,15.64,96,68,7.72,RU,1608104967
Asău,46.43,26.4,35.01,2,40,2.68,RO,1608104967
Preobrazheniye,42.9,133.91,11.97,72,93,10.45,RU,1608104967
Bafatá,12.17,-14.75,67.03,50,81,3.15,GW,1608104967
Monrovia,6.3,-10.8,75.2,94,75,2.59,LR,1608104857
Belozërskoye,55.82,65.58,18.03,94,100,9.95,RU,1608104967
Codrington,-38.27,141.97,60.73,91,100,5.48,AU,1608104968
Tual,-5.67,132.75,84.29,77,100,23.94,ID,1608104897
Abu Kamal,34.45,40.92,62.51,51,20,3.78,SY,1608104968
Matagami,49.75,-77.63,-29.2,81,1,3.36,CA,1608104968
Jacareacanga,-6.22,-57.75,71.89,92,100,1.21,BR,1608104968
Lavrentiya,65.58,-171,14.49,94,96,12.48,RU,1608104968
Arona,28.1,-16.68,63,77,75,3.36,ES,1608104969
Xining,36.62,101.77,22.12,75,100,1.25,CN,1608104969
Madīnat Sittah Uktūbar,29.82,31.05,61,82,75,10.29,EG,1608104969
Inuvik,68.35,-133.72,-18.4,75,100,3.36,CA,1608104969
Shitanjing,39.23,106.34,19.36,73,0,1.25,CN,1608104969
Springbok,-29.66,17.89,78.8,29,0,17.22,ZA,1608104969
Tongchuanshi,35.08,109.09,34.43,66,100,2.68,CN,1608104969
Westmont,33.94,-118.3,57.99,53,1,4.47,US,1608104969
Bratsk,56.13,101.61,3.2,71,40,17.9,RU,1608104970
Komatipoort,-25.43,31.95,75,86,100,3,ZA,1608104970
Kaabong,3.48,34.15,77.83,29,0,16.04,UG,1608104970
Laas,46.62,10.7,32,62,90,8.05,IT,1608104970
Karpathos,35.51,27.21,62.6,72,40,23.04,GR,1608104970
Yangi Marg`ilon,40.43,71.72,33.8,59,75,4.7,UZ,1608104970
Aswān,24.09,32.91,64.71,38,0,9.64,EG,1608104970
Maceió,-9.67,-35.74,73.4,94,75,3.36,BR,1608104970
Moussoro,13.64,16.49,74.98,19,82,13.69,TD,1608104971
Port Augusta,-32.5,137.77,75.2,60,0,21.92,AU,1608104971
Port-de-Bouc,43.4,4.98,53.6,76,90,11.41,FR,1608104971
St. George's,12.06,-61.75,77.2,79,0,7.83,GD,1608104971
Foumban,5.73,10.9,79.09,30,100,2.84,CM,1608104971
NaN,NaN,NaN,NaN,NaN,NaN,NaN,NaN,NaN
Pambuhan,13.97,123.08,81.14,78,61,12.66,PH,1608104971
Gizo Government Station,-8.1,156.84,84.24,76,33,8.95,SB,1608104971
Allauch,43.34,5.48,54,83,0,13.38,FR,1608104972
West Plains,36.73,-91.85,30.2,80,90,4.7,US,1608104972
NaN,NaN,NaN,NaN,NaN,NaN,NaN,NaN,NaN
Izazi,-7.2,35.73,78.8,47,20,16.11,TZ,1608104841
NaN,NaN,NaN,NaN,NaN,NaN,NaN,NaN,NaN
Concarneau,47.88,-3.92,53.6,87,0,13.87,FR,1608104972
NaN,NaN,NaN,NaN,NaN,NaN,NaN,NaN,NaN
Leningradskiy,69.38,178.42,14.79,94,100,22.77,RU,1608104972
Borba,-4.39,-59.59,70.54,93,40,0.56,BR,1608104973
Black River,18.03,-77.85,73.4,88,20,3.36,JM,1608104973
Grójec,51.86,20.87,37,99,100,8.99,PL,1608104973
Deputatsky,69.3,139.9,-30.28,87,75,1.54,RU,1608104973
Oodweyne,9.41,45.06,75.79,19,0,4.59,SO,1608104973
Arlit,18.74,7.39,72.12,21,0,6.46,NE,1608104973
NaN,NaN,NaN,NaN,NaN,NaN,NaN,NaN,NaN
San Quintín,30.48,-115.95,57.27,39,0,4.27,MX,1608104974
Allada,6.67,2.15,81.01,77,2,4.63,BJ,1608104974
Anadyr,64.75,177.48,15.8,78,40,15.66,RU,1608104974
Zhezkazgan,47.8,67.71,5.83,92,0,4.92,KZ,1608104974
Moratuwa,6.77,79.88,84.2,74,40,3.36,LK,1608104974
Amapá,1,-52,71.08,98,100,1.05,BR,1608104974
Mhango,-3.28,32.85,76.17,67,56,3.47,TZ,1608104974
Kuminskiy,58.67,66.57,20.25,89,100,8.63,RU,1608104974
Brufut,13.38,-16.75,64.4,77,0,4.7,GM,1608104975
NaN,NaN,NaN,NaN,NaN,NaN,NaN,NaN,NaN
Nouakchott,18.09,-15.98,57.2,44,0,10.29,MR,1608104975
Srīvardhan,18.03,73.02,86.11,49,100,7.87,IN,1608104975
Amposta,40.71,0.58,43,95,80,1.95,ES,1608104975
Gänserndorf,48.34,16.72,35.01,90,100,5.99,AT,1608104975
Nhulunbuy,-12.23,136.77,77,94,75,5.82,AU,1608104976
San Cristobal,7.77,-72.22,63.32,89,100,1.28,VE,1608104976
Udachny,66.42,112.4,-25.6,74,90,6.71,RU,1608104976
Port Lincoln,-34.73,135.87,62.65,78,36,16.15,AU,1608104976
Lagoa,39.05,-27.98,62.78,91,97,20.33,PT,1608104976
Shimoda,34.67,138.95,46.4,62,20,18.34,JP,1608104976
Pogar,52.55,33.26,29.57,98,100,4.76,RU,1608104976
Hutang,31.53,119.48,42.8,26,0,6.71,CN,1608104976
Kaeo,-35.1,173.78,66,76,0,1.41,NZ,1608104977
Valparaíso,-33.04,-71.63,50,100,0,4.7,CL,1608104977
Paracatu,-17.22,-46.87,67.53,70,100,1.43,BR,1608104977
Totness,5.88,-56.32,76.57,86,100,4.74,SR,1608104977
Carutapera,-1.2,-46.02,75.33,89,79,3.09,BR,1608104977
Dakar,14.69,-17.44,69.8,94,0,9.17,SN,1608104741
Wenatchee,47.42,-120.31,30.2,92,90,8.52,US,1608104977
Mounana,-1.41,13.16,73.4,94,90,2.24,GA,1608104978
Berezanka,46.85,31.39,33.8,86,90,8.95,UA,1608104978
Keffi,8.85,7.87,69.8,68,0,4.7,NG,1608104978
Alofi,-19.06,-169.92,77,88,75,12.75,NU,1608104978
Sembakung,3.82,117.25,87.66,69,76,2.26,ID,1608104978
Ukhta,63.57,53.68,15.96,96,98,5.46,RU,1608104978
Portland,45.52,-122.68,48.2,93,90,5.82,US,1608104486
Mildura,-34.2,142.15,89.6,27,100,11.41,AU,1608104838
Ulladulla,-35.35,150.47,71.01,100,40,16.11,AU,1608104979
Pontalina,-17.52,-49.45,68.9,90,100,3.53,BR,1608104979
Te Anau,-45.42,167.72,54.93,91,100,3,NZ,1608104979
Flin Flon,54.77,-101.86,3.04,94,100,4.45,CA,1608104979
Yablonovo,50.85,37.36,28.4,100,90,4.47,RU,1608104979
Pangody,65.85,74.49,-5.6,91,100,13.49,RU,1608104979
Pala,9.36,14.9,81.1,16,0,8.16,TD,1608104980
Vardø,70.37,31.11,30.2,80,90,20.8,NO,1608104980
Townsville,-19.25,146.8,84.2,79,75,14.99,AU,1608104980
NaN,NaN,NaN,NaN,NaN,NaN,NaN,NaN,NaN
Zapolyarnyy,69.42,30.81,30.2,74,75,26.4,RU,1608104980
Petropavlovsk-Kamchatskiy,53.05,158.65,28.4,68,40,22.37,RU,1608104980
Mugur-Aksy,50.35,90.5,9.36,85,86,4.32,RU,1608104980
Puerto Colombia,10.99,-74.95,80.6,83,20,8.05,CO,1608104981
Conde,-7.26,-34.91,75.2,94,0,6.76,BR,1608104947
Nizwá,22.93,57.53,75.45,23,1,5.03,OM,1608104981
Zabaykal'sk,49.63,117.32,-2.38,86,4,5.82,RU,1608104981
Trenggalek,-8.05,111.72,82.53,75,90,6.13,ID,1608104954
Excelsior Springs,39.34,-94.23,28.4,74,90,3.36,US,1608104727
Luorong,24.41,109.61,47.53,54,80,9.93,CN,1608104981
Mizusawa,39.13,141.13,24.8,92,75,6.93,JP,1608104982
Lumeje,-11.55,20.78,70.41,74,93,6.6,AO,1608104982
Krasnosel'kup,65.7,82.47,-8.7,87,100,19.39,RU,1608104982
Marawi,8,124.29,82,82,68,3,PH,1608104982
Kununurra,-15.77,128.73,102.2,33,95,11.41,AU,1608104982
Grenfell,-33.9,148.17,77.43,60,93,10,AU,1608104982
Briançon,44.9,6.65,41,82,93,3.49,FR,1608104983
Taywarah,33.35,64.42,26.94,66,0,1.12,AF,1608104983
Zweibrücken,49.25,7.37,46.4,93,75,6.93,DE,1608104983
Raudeberg,61.99,5.14,45,84,79,15.9,NO,1608104983
Vila Velha,-20.33,-40.29,75.2,83,0,9.17,BR,1608104896
Marang,5.21,103.21,86,79,40,10.29,MY,1608104983
Pokhara,28.23,83.98,71.76,22,2,6.38,NP,1608104983
Aegviidu,59.29,25.61,35.01,97,90,12.75,EE,1608104983
Garoowe,8.41,48.48,82.9,32,0,14.41,SO,1608104887
NaN,NaN,NaN,NaN,NaN,NaN,NaN,NaN,NaN
Coyhaique,-45.58,-72.07,48.2,57,0,6.93,CL,1608104904
Verkhnyaya Inta,65.98,60.31,15.24,95,99,17.81,RU,1608104984
Leshukonskoye,64.9,45.76,12.42,96,86,5.61,RU,1608104984
Westport,41.14,-73.36,26.6,42,1,8.05,US,1608104848
Birao,10.28,22.79,83.84,14,37,11.32,CF,1608104984
São João da Barra,-21.64,-41.05,73.76,87,100,10.07,BR,1608104984
Ilulissat,69.22,-51.1,26.6,45,0,19.46,GL,1608104985
